facilityInternal,agencyInternal,stateInternal,company,createdAt,googlePlaceName,address,longitude,latitude,county,googlePlaceId,state
"Cullman County Detention Center","Alabama - Cullman County Sheriffs Office","AL","ICS","2021-01-07T20:11:45.553Z","Cullman County Detention Center","1900 Beech Ave SE, Cullman, AL 35055, United States","-86.8300094","34.1502761","Cullman County","ChIJB1-Mvi3KiYgRVcQw9D3p4Cg","AL"
"Dale County Jail","Alabama - Dale County Jail","AL","ICS","2021-01-07T20:11:51.054Z","Dale County Jail","124 Adams St, Ozark, AL 36360, United States","-85.63724409999999","31.4510312","Dale County","ChIJR3IsO9B9kogR_LjTv7aUUGQ","AL"
"Hoover City Police Department","Alabama - Hoover City Police Department","AL","ICS","2021-01-07T20:12:00.972Z","Hoover Police Department (City Hall)","100 Municipal Dr, Hoover, AL 35216, United States","-86.805836","33.387665","Jefferson County","ChIJERmd3A0iiYgRubh9xyuqQ4A","AL"
"Morgan County Jail","Alabama - Morgan County Jail","AL","ICS","2021-01-07T20:12:09.152Z","Morgan County Jail","119 Lee St NE, Decatur, AL 35601, United States","-86.9872828","34.6058472","Morgan County","ChIJZce2d9SFYogRd2o6VRgVrck","AL"
"ASPC-Papago","Arizona - Arizona Department of Corrections","AZ","ICS","2021-01-07T20:12:23.765Z","Papago","Papago, AZ 85333, USA","-113.1390708","33.1042115","Maricopa County","ChIJ99nEJVfk1IARcMVP3tMo1wA","AZ"
"ASPC-Ft Grant","Arizona - Arizona Department of Corrections","AZ","ICS","2021-01-07T20:12:26.798Z","Arizona State Prison-Ft Grant","15500 South Fort Grant Road, Willcox, AZ 85643, United States","-109.9442705","32.6229547","Graham County","ChIJwe4oCOvB14YRk5BFXreOCjQ","AZ"
"ASP-Marana CCTF","Arizona - Arizona Department of Corrections","AZ","ICS","2021-01-07T20:12:30.742Z","Marana Community Correctional Treatment Facility","12610 W Silverbell Rd, Marana, AZ 85653, United States","-111.2419433","32.4176483","Pima County","ChIJddw3pbbl1YYRRfIN6xVf1HA","AZ"
"ASPC-Tucson","Arizona - Arizona Department of Corrections","AZ","ICS","2021-01-07T20:12:34.942Z","Arizona State Prison Complex Tucson","10000 S Wilmot Rd, Tucson, AZ 85734, United States","-110.8588515","32.0667504","Pima County","ChIJUdUEVv5i1oYRH9DmjVwt69Q","AZ"
"ASPC-Yuma","Arizona - Arizona Department of Corrections","AZ","ICS","2021-01-07T20:12:38.960Z","Arizona State Prison Complex","7125 East Cesar Chavez Blvd., Yuma, AZ 85365, United States","-114.6430823","32.4941306","Yuma County","ChIJv-HtI8NR1oAR4dJ_ITNA-1A","AZ"
"ASP-Kingman","Arizona - Arizona Department of Corrections","AZ","ICS","2021-01-07T20:12:42.954Z","Kingman Prison","4626 W English Dr, Golden Valley, AZ 86413, United States","-114.179681","35.028965","Mohave County","ChIJSXW5AJoJzoARdmhEY5N1oNI","AZ"
"ASP-Red Rock Correctional Center","Arizona - Arizona Department of Corrections","AZ","ICS","2021-01-07T20:12:46.763Z","Red Rock Correctional Center","1750 E Arica Rd, Eloy, AZ 85131, United States","-111.5206062","32.8089843","Pinal County","ChIJb0X6tAdtKocRfOEvu_0uTgg","AZ"
"ASP-Central Arizona CACF","Arizona - Arizona Department of Corrections","AZ","ICS","2021-01-07T20:12:50.367Z","CCA Central Arizona Detention Center","1155 N Pinal Pkwy Ave, Florence, AZ 85132, United States","-111.3775177","33.0407485","Pinal County","ChIJ5_AeCB08KocRMs6pCNP1JHk","AZ"
"ASPC-Florence","Arizona - Arizona Department of Corrections","AZ","ICS","2021-01-07T20:12:54.170Z","Arizona State Prison Complex - Florence","1305 E Butte Ave, Florence, AZ 85132, United States","-111.373139","33.0285822","Pinal County","ChIJB5HbeiQ8KocRoxOqjEUHHtE","AZ"
"ASPC-Apache","Arizona - Arizona Department of Corrections","AZ","ICS","2021-01-07T20:12:58.331Z","Arizona Department of Corrections, Arizona State Prison - Apache Unit","38322 US-180, St Johns, AZ 85936, United States","-109.3895888","34.3205251","Apache County","ChIJI7W-OXgHJocR3p1LC3s3H68","AZ"
"ASPC-Winslow","Arizona - Arizona Department of Corrections","AZ","ICS","2021-01-07T20:13:01.472Z","ASPC -Winslow","2100 AZ-87, Winslow, AZ 86047, United States","-110.718345","34.9846405","Navajo County","ChIJrT5qWENmLocRf2Q4UC1q1RY","AZ"
"ASPC-Phoenix","Arizona - Arizona Department of Corrections","AZ","ICS","2021-01-07T20:13:05.797Z","Arizona State Prison Complex","2500 E Van Buren St, Phoenix, AZ 85008, United States","-112.0258996","33.4525898","Maricopa County","ChIJbX07xeENK4cRtE5eySrvtPs","AZ"
"ASP-Phoenix West","Arizona - Arizona Department of Corrections","AZ","ICS","2021-01-07T20:13:09.545Z","Arizona State Prison-Phoenix","3402 W Cocopah St, Phoenix, AZ 85009, United States","-112.1328778","33.4327528","Maricopa County","ChIJ17t-4FcRK4cRjFm4R8QbDik","AZ"
"ASPC-Lewis","Arizona - Arizona Department of Corrections","AZ","ICS","2021-01-07T20:13:13.571Z","Lewis Corrections Department","26700 AZ-85, Buckeye, AZ 85326, United States","-112.6443652","33.2012808","Maricopa County","ChIJM6NMrwLT1IARUSi5pttMkiU","AZ"
"ASPC-Perryville","Arizona - Arizona Department of Corrections","AZ","ICS","2021-01-07T20:13:16.947Z","Arizona Department of Corrections Perryville","2105 N Citrus Rd, Goodyear, AZ 85395, United States","-112.4422426","33.4710105","Maricopa County","ChIJg_yMgBBIK4cRzEiF-1ga-s8","AZ"
"ASPC-Eyman","Arizona - Arizona Department of Corrections","AZ","ICS","2021-01-07T20:13:20.666Z","Arizona Department of Corrections-Eyman Complex","4374 E Butte Ave, Florence, AZ 85132, United States","-111.3375688","33.0314738","Pinal County","ChIJF52FgFk8KocRASR_RXyTm5U","AZ"
"ASP-Florence West","Arizona - Arizona Department of Corrections","AZ","ICS","2021-01-07T20:13:24.873Z","State Prison Florence West","915 E Diversion Dam Rd, Florence, AZ 85132, United States","-111.3765313","33.0368933","Pinal County","ChIJW1Y0cR88KocRQPz68LW_D5s","AZ"
"ASPC-Globe","Arizona - Arizona Department of Corrections","AZ","ICS","2021-01-07T20:13:29.341Z","Arizona Department of Corrections State Prison","1000 Fairgrounds Rd, Globe, AZ 85501, United States","-110.7110738","33.4166217","Gila County","ChIJbZQxh_6fKYcRml0JoiWFxqQ","AZ"
"ASPC-Safford","Arizona - Arizona Department of Corrections","AZ","ICS","2021-01-07T20:13:33.293Z","Arizona State Prison Complex – Safford","896 Cook Rd, Safford, AZ 85546, United States","-109.565446","32.830916","Graham County","ChIJSY_qtQsC2IYRLjSLPBl4nec","AZ"
"ASPC-Douglas","Arizona - Arizona Department of Corrections","AZ","ICS","2021-01-07T20:13:38.136Z","Arizona State Prison Complex - Douglas","6911 N Bdi Blvd, Douglas, AZ 85607, United States","-109.6001473","31.4455003","Cochise County","ChIJRRLVw4mp0IYRRObM8JvDDdI","AZ"
"Central Arizona - Florence NVDOC","Arizona - Central Arizona - Florence Correctional Complex","AZ","ICS","2021-01-07T20:13:48.960Z","CCA Central Arizona Detention Center","1155 N Pinal Pkwy Ave, Florence, AZ 85132, United States","-111.3775177","33.0407485","Pinal County","ChIJ5_AeCB08KocRMs6pCNP1JHk","AZ"
"Crossroads Correctional Center","Arizona - Central Arizona - Florence Correctional Complex","AZ","ICS","2021-01-07T20:13:51.667Z","Crossroads Juvenile Center","17 Bristol St, Brooklyn, NY 11212, United States","-73.9128327","40.6707819","Kings County","ChIJT5PxrGBcwokR1-hWrV_xOA4","AZ"
"Saguaro-NVDOC","Arizona - Central Arizona - Florence Correctional Complex","AZ","ICS","2021-01-07T20:13:55.479Z","Saguaro Correctional Center","1250 E Arica Rd, Eloy, AZ 85131, United States","-111.5257299","32.8079801","Pinal County","ChIJLaDhVKhtKocR4Ictolqcafo","AZ"
"Saguaro Correctional Center","Arizona - Central Arizona - Florence Correctional Complex","AZ","ICS","2021-01-07T20:13:58.840Z","Saguaro Correctional Center","1250 E Arica Rd, Eloy, AZ 85131, United States","-111.5257299","32.8079801","Pinal County","ChIJLaDhVKhtKocR4Ictolqcafo","AZ"
"Central Arizona - Florence Correctional Complex","Arizona - Central Arizona - Florence Correctional Complex","AZ","ICS","2021-01-07T20:14:02.147Z","CCA Central Arizona Detention Center","1155 N Pinal Pkwy Ave, Florence, AZ 85132, United States","-111.3775177","33.0407485","Pinal County","ChIJ5_AeCB08KocRMs6pCNP1JHk","AZ"
"Saguaro-USMS","Arizona - Central Arizona - Florence Correctional Complex","AZ","ICS","2021-01-07T20:14:06.862Z","Saguaro Correctional Center","1250 E Arica Rd, Eloy, AZ 85131, United States","-111.5257299","32.8079801","Pinal County","ChIJLaDhVKhtKocR4Ictolqcafo","AZ"
"Central Arizona - Florence NVDOC","Arizona - Saguaro Correctional Center","AZ","ICS","2021-01-07T20:14:15.957Z","CCA Central Arizona Detention Center","1155 N Pinal Pkwy Ave, Florence, AZ 85132, United States","-111.3775177","33.0407485","Pinal County","ChIJ5_AeCB08KocRMs6pCNP1JHk","AZ"
"Crossroads Correctional Center","Arizona - Saguaro Correctional Center","AZ","ICS","2021-01-07T20:14:19.555Z","Crossroads Juvenile Center","17 Bristol St, Brooklyn, NY 11212, United States","-73.9128327","40.6707819","Kings County","ChIJT5PxrGBcwokR1-hWrV_xOA4","AZ"
"Saguaro-NVDOC","Arizona - Saguaro Correctional Center","AZ","ICS","2021-01-07T20:14:24.117Z","Saguaro Correctional Center","1250 E Arica Rd, Eloy, AZ 85131, United States","-111.5257299","32.8079801","Pinal County","ChIJLaDhVKhtKocR4Ictolqcafo","AZ"
"Saguaro Correctional Center","Arizona - Saguaro Correctional Center","AZ","ICS","2021-01-07T20:14:27.248Z","Saguaro Correctional Center","1250 E Arica Rd, Eloy, AZ 85131, United States","-111.5257299","32.8079801","Pinal County","ChIJLaDhVKhtKocR4Ictolqcafo","AZ"
"Central Arizona - Florence Correctional Complex","Arizona - Saguaro Correctional Center","AZ","ICS","2021-01-07T20:14:30.866Z","CCA Central Arizona Detention Center","1155 N Pinal Pkwy Ave, Florence, AZ 85132, United States","-111.3775177","33.0407485","Pinal County","ChIJ5_AeCB08KocRMs6pCNP1JHk","AZ"
"Saguaro-USMS","Arizona - Saguaro Correctional Center","AZ","ICS","2021-01-07T20:14:35.055Z","Saguaro Correctional Center","1250 E Arica Rd, Eloy, AZ 85131, United States","-111.5257299","32.8079801","Pinal County","ChIJLaDhVKhtKocR4Ictolqcafo","AZ"
"Central Arizona - Florence NVDOC","Arizona - Saguaro-NVDOC","AZ","ICS","2021-01-07T20:14:43.750Z","CCA Central Arizona Detention Center","1155 N Pinal Pkwy Ave, Florence, AZ 85132, United States","-111.3775177","33.0407485","Pinal County","ChIJ5_AeCB08KocRMs6pCNP1JHk","AZ"
"Crossroads Correctional Center","Arizona - Saguaro-NVDOC","AZ","ICS","2021-01-07T20:14:45.964Z","Crossroads Juvenile Center","17 Bristol St, Brooklyn, NY 11212, United States","-73.9128327","40.6707819","Kings County","ChIJT5PxrGBcwokR1-hWrV_xOA4","AZ"
"Saguaro-NVDOC","Arizona - Saguaro-NVDOC","AZ","ICS","2021-01-07T20:14:49.962Z","Saguaro Correctional Center","1250 E Arica Rd, Eloy, AZ 85131, United States","-111.5257299","32.8079801","Pinal County","ChIJLaDhVKhtKocR4Ictolqcafo","AZ"
"Saguaro Correctional Center","Arizona - Saguaro-NVDOC","AZ","ICS","2021-01-07T20:14:53.169Z","Saguaro Correctional Center","1250 E Arica Rd, Eloy, AZ 85131, United States","-111.5257299","32.8079801","Pinal County","ChIJLaDhVKhtKocR4Ictolqcafo","AZ"
"Central Arizona - Florence Correctional Complex","Arizona - Saguaro-NVDOC","AZ","ICS","2021-01-07T20:14:57.058Z","CCA Central Arizona Detention Center","1155 N Pinal Pkwy Ave, Florence, AZ 85132, United States","-111.3775177","33.0407485","Pinal County","ChIJ5_AeCB08KocRMs6pCNP1JHk","AZ"
"Saguaro-USMS","Arizona - Saguaro-NVDOC","AZ","ICS","2021-01-07T20:15:00.963Z","Saguaro Correctional Center","1250 E Arica Rd, Eloy, AZ 85131, United States","-111.5257299","32.8079801","Pinal County","ChIJLaDhVKhtKocR4Ictolqcafo","AZ"
"Central Arizona - Florence NVDOC","Arizona - Saguaro-USMS","AZ","ICS","2021-01-07T20:15:10.473Z","CCA Central Arizona Detention Center","1155 N Pinal Pkwy Ave, Florence, AZ 85132, United States","-111.3775177","33.0407485","Pinal County","ChIJ5_AeCB08KocRMs6pCNP1JHk","AZ"
"Crossroads Correctional Center","Arizona - Saguaro-USMS","AZ","ICS","2021-01-07T20:15:13.186Z","Crossroads Juvenile Center","17 Bristol St, Brooklyn, NY 11212, United States","-73.9128327","40.6707819","Kings County","ChIJT5PxrGBcwokR1-hWrV_xOA4","AZ"
"Saguaro-NVDOC","Arizona - Saguaro-USMS","AZ","ICS","2021-01-07T20:15:16.947Z","Saguaro Correctional Center","1250 E Arica Rd, Eloy, AZ 85131, United States","-111.5257299","32.8079801","Pinal County","ChIJLaDhVKhtKocR4Ictolqcafo","AZ"
"Saguaro Correctional Center","Arizona - Saguaro-USMS","AZ","ICS","2021-01-07T20:15:20.451Z","Saguaro Correctional Center","1250 E Arica Rd, Eloy, AZ 85131, United States","-111.5257299","32.8079801","Pinal County","ChIJLaDhVKhtKocR4Ictolqcafo","AZ"
"Central Arizona - Florence Correctional Complex","Arizona - Saguaro-USMS","AZ","ICS","2021-01-07T20:15:23.161Z","CCA Central Arizona Detention Center","1155 N Pinal Pkwy Ave, Florence, AZ 85132, United States","-111.3775177","33.0407485","Pinal County","ChIJ5_AeCB08KocRMs6pCNP1JHk","AZ"
"Saguaro-USMS","Arizona - Saguaro-USMS","AZ","ICS","2021-01-07T20:15:26.262Z","Saguaro Correctional Center","1250 E Arica Rd, Eloy, AZ 85131, United States","-111.5257299","32.8079801","Pinal County","ChIJLaDhVKhtKocR4Ictolqcafo","AZ"
"Central Arizona - Florence NVDOC","Arizona - Central Arizona - Florence NVDOC","AZ","ICS","2021-01-07T20:15:35.459Z","CCA Central Arizona Detention Center","1155 N Pinal Pkwy Ave, Florence, AZ 85132, United States","-111.3775177","33.0407485","Pinal County","ChIJ5_AeCB08KocRMs6pCNP1JHk","AZ"
"Crossroads Correctional Center","Arizona - Central Arizona - Florence NVDOC","AZ","ICS","2021-01-07T20:15:38.350Z","Crossroads Juvenile Center","17 Bristol St, Brooklyn, NY 11212, United States","-73.9128327","40.6707819","Kings County","ChIJT5PxrGBcwokR1-hWrV_xOA4","AZ"
"Saguaro-NVDOC","Arizona - Central Arizona - Florence NVDOC","AZ","ICS","2021-01-07T20:15:42.763Z","Saguaro Correctional Center","1250 E Arica Rd, Eloy, AZ 85131, United States","-111.5257299","32.8079801","Pinal County","ChIJLaDhVKhtKocR4Ictolqcafo","AZ"
"Saguaro Correctional Center","Arizona - Central Arizona - Florence NVDOC","AZ","ICS","2021-01-07T20:15:46.175Z","Saguaro Correctional Center","1250 E Arica Rd, Eloy, AZ 85131, United States","-111.5257299","32.8079801","Pinal County","ChIJLaDhVKhtKocR4Ictolqcafo","AZ"
"Central Arizona - Florence Correctional Complex","Arizona - Central Arizona - Florence NVDOC","AZ","ICS","2021-01-07T20:15:49.947Z","CCA Central Arizona Detention Center","1155 N Pinal Pkwy Ave, Florence, AZ 85132, United States","-111.3775177","33.0407485","Pinal County","ChIJ5_AeCB08KocRMs6pCNP1JHk","AZ"
"Saguaro-USMS","Arizona - Central Arizona - Florence NVDOC","AZ","ICS","2021-01-07T20:15:56.870Z","Saguaro Correctional Center","1250 E Arica Rd, Eloy, AZ 85131, United States","-111.5257299","32.8079801","Pinal County","ChIJLaDhVKhtKocR4Ictolqcafo","AZ"
"Leavenworth Detention Center","Arizona - La Palma Correctional Center","AZ","ICS","2021-01-07T20:16:07.475Z","CCA Central Arizona Detention Center","1155 N Pinal Pkwy Ave, Florence, AZ 85132, United States","-111.3775177","33.0407485","Pinal County","ChIJ5_AeCB08KocRMs6pCNP1JHk","AZ"
"Silverdale Detention Facilities","Arizona - La Palma Correctional Center","AZ","ICS","2021-01-07T20:16:14.058Z","Saguaro Correctional Center","1250 E Arica Rd, Eloy, AZ 85131, United States","-111.5257299","32.8079801","Pinal County","ChIJLaDhVKhtKocR4Ictolqcafo","AZ"
"Tallahatchie  MSDOC","Arizona - La Palma Correctional Center","AZ","ICS","2021-01-07T20:16:17.635Z","Arizona Department of Corrections","1601 W Jefferson St, Phoenix, AZ 85007, United States","-112.0942104","33.4465846","Maricopa County","ChIJVxqYtywSK4cRDAo-AAXRcdM","AZ"
"Hardeman County Correctional Center","Arizona - La Palma Correctional Center","AZ","ICS","2021-01-07T20:16:21.404Z","Hardeman County Correctional","2520 Union Springs Rd, Whiteville, TN 38075, United States","-89.1600838","35.2872178","Hardeman County","ChIJmXcodRH0fogRyVV7eNdA6_g","AZ"
"La Palma Correctional Center","Arizona - La Palma Correctional Center","AZ","ICS","2021-01-07T20:16:25.059Z","La Palma Correctional Center","5501 N La Palma Rd, Eloy, AZ 85131, United States","-111.528815","32.8144856","Pinal County","ChIJzZva9KptKocRrrZzSBkMOO8","AZ"
"West Tennessee Detention Facility","Arizona - La Palma Correctional Center","AZ","ICS","2021-01-07T20:16:29.040Z","West Tennessee Detention Facility","6299 Finde Naifeh Dr, Mason, TN 38049, United States","-89.5483177","35.4064431","Tipton County","ChIJTeudS6caf4gRFv4Dc3L3eH4","AZ"
"Whiteville Correctional Facility","Arizona - La Palma Correctional Center","AZ","ICS","2021-01-07T20:16:33.175Z","Arizona State Prison Complex Tucson","10000 S Wilmot Rd, Tucson, AZ 85734, United States","-110.8588515","32.0667504","Pima County","ChIJUdUEVv5i1oYRH9DmjVwt69Q","AZ"
"Tallahatchie County Correctional Facility","Arizona - La Palma Correctional Center","AZ","ICS","2021-01-07T20:16:38.095Z","Tallahatchie County Correction","415 US 49, Tutwiler, MS 38963, United States","-90.44626319999999","34.0269812","Tallahatchie County","ChIJj0J2RqHvKoYRos8aPbwvSxg","AZ"
"Tallahatchie ICE","Arizona - La Palma Correctional Center","AZ","ICS","2021-01-07T20:16:42.248Z","Ice Now AZ","2440 W Lincoln St #140, Phoenix, AZ 85009, United States","-112.1124819","33.4431774","Maricopa County","ChIJ_V_a5-OnK4cRgGwp2gxDm0U","AZ"
"Nevada Southern Detention Center","Arizona - La Palma Correctional Center","AZ","ICS","2021-01-07T20:16:52.656Z","Nevada Southern Detention Center","2190 E Mesquite Ave, Pahrump, NV 89060, United States","-115.9769898","36.2527907","Nye County","ChIJISE2b-Y2xoARe1__mRxeaEo","AZ"
"Tallahatchie SCDOC","Arizona - La Palma Correctional Center","AZ","ICS","2021-01-07T20:16:56.156Z","Arizona Department of Corrections","1601 W Jefferson St, Phoenix, AZ 85007, United States","-112.0942104","33.4465846","Maricopa County","ChIJVxqYtywSK4cRDAo-AAXRcdM","AZ"
"Saguaro-KSDOC","Arizona - CoreCivic - Saguaro Correctional Center","AZ","ICS","2021-01-07T20:17:07.265Z","Saguaro National Park","Arizona, United States","-111.166615","32.2967359","Pima County","ChIJY3ZWFrpv1oYRKo6u5b-Wx5E","AZ"
"Saguaro-IDDOC","Arizona - CoreCivic Saguaro - IDDOC","AZ","ICS","2021-01-07T20:17:17.362Z","Saguaro Correctional Center","1250 E Arica Rd, Eloy, AZ 85131, United States","-111.5257299","32.8079801","Pinal County","ChIJLaDhVKhtKocR4Ictolqcafo","AZ"
"Graham County Jail","Arizona - Graham County Sheriffs Office","AZ","ICS","2021-01-07T20:17:26.858Z","Graham County Sheriff’s Office","600 W Graham Canal Rd, Safford, AZ 85546, United States","-109.7144505","32.85738570000001","Graham County","ChIJr6Z_X4_814YRlwzDg3Hteio","AZ"
"Eastern Arizona Regional Juvenile Detention Facility","Arizona - Graham County Sheriffs Office","AZ","ICS","2021-01-07T20:17:30.145Z","Eastern Arizona Regional Juvenile Detention Facility","919 W Thatcher Blvd, Safford, AZ 85546, United States","-109.7180687","32.8337296","Graham County","ChIJqT5sWY_814YR_pyZGjwm7Pk","AZ"
"Mohave County Jail","Arizona - Mohave County Sheriffs Office","AZ","ICS","2021-01-07T20:17:40.458Z","Mohave County Jail","501 W Hwy 66, Kingman, AZ 86401, United States","-114.0652236","35.1869697","Mohave County","ChIJr0Ja-X7ezYAR0vlNX3DOhik","AZ"
"Mohave County Juvenile Detention Facility","Arizona - Mohave County Sheriffs Office","AZ","ICS","2021-01-07T20:17:43.255Z","Mohave County Juvenile Detention","300 W Andy Devine Ave, Kingman, AZ 86401, United States","-114.0609474","35.1886888","Mohave County","ChIJFXZeU2PezYARV01XgMebAZ8","AZ"
"Phillips County Detention Center","Arkansas - Phillips County","AR","ICS","2021-01-07T20:17:54.873Z","Phillips County Sheriff's Office","201 Perry St, Helena, AR 72342, United States","-90.585206","34.5290028","Phillips County","ChIJz1PeKr4q1YcRN2yUG2um2Fk","AR"
"Butte County Jail","California - Butte County Sheriffs Office","CA","ICS","2021-01-07T20:18:06.460Z","Butte County Jail","33 County Center Dr, Oroville, CA 95965, United States","-121.5740145","39.5295603","Butte County","ChIJGQ0aD5q1nIARaWjVZm8E26A","CA"
"Butte County Juvenile Hall","California - Butte County Sheriffs Office","CA","ICS","2021-01-07T20:18:09.255Z","Butte County Juvenile Hall","41 County Center Dr, Oroville, CA 95965, United States","-121.5703845","39.5296252","Butte County","ChIJRyVHc5q1nIARzPN4zs7J2Ms","CA"
"Butte County Jail","California - Butte County Juvenile Hall","CA","ICS","2021-01-07T20:18:23.458Z","Butte County Jail","33 County Center Dr, Oroville, CA 95965, United States","-121.5740145","39.5295603","Butte County","ChIJGQ0aD5q1nIARaWjVZm8E26A","CA"
"Butte County Juvenile Hall","California - Butte County Juvenile Hall","CA","ICS","2021-01-07T20:18:26.158Z","Butte County Juvenile Hall","41 County Center Dr, Oroville, CA 95965, United States","-121.5703845","39.5296252","Butte County","ChIJRyVHc5q1nIARzPN4zs7J2Ms","CA"
"Geo El Centro Detention Facility","California - Geo El Centro Detention Facility, CA","CA","ICS","2021-01-07T20:18:41.256Z","US Immigration and Customs Enforcement","1115 N Imperial Ave, El Centro, CA 92243, United States","-115.568941","32.8030763","Imperial County","ChIJQSSavkpn14ARW-y_XOj1BVM","CA"
"GEO WRDF San Diego","California - GEO WRDF San Diego","CA","ICS","2021-01-07T20:18:49.559Z","Western Region Detention Facility","220 W C St, San Diego, CA 92101, United States","-117.165158","32.7168571","San Diego County","ChIJMSOSBKlU2YARHFLocOSn-A8","CA"
"Humboldt County Correctional Facility","California - Humboldt County Correctional Facility","CA","ICS","2021-01-07T20:18:58.165Z","Humboldt County Correctional Facility","826 4th St, Eureka, CA 95501, United States","-124.1621737","40.80282649999999","Humboldt County","ChIJTWmJhXxV0VQR5q3VJ7pbgww","CA"
"Humboldt County Juvenile Hall","California - Humboldt County Correctional Facility","CA","ICS","2021-01-07T20:19:00.956Z","Humboldt County Probation Department","2002 Harrison Ave, Eureka, CA 95501, United States","-124.1413663","40.7894024","Humboldt County","ChIJG0g-mcn_01QReWXan_tZPuI","CA"
"Humboldt County Correctional Facility","California - Humboldt County Juvenile Hall","CA","ICS","2021-01-07T20:19:11.858Z","Humboldt County Correctional Facility","826 4th St, Eureka, CA 95501, United States","-124.1621737","40.80282649999999","Humboldt County","ChIJTWmJhXxV0VQR5q3VJ7pbgww","CA"
"Humboldt County Juvenile Hall","California - Humboldt County Juvenile Hall","CA","ICS","2021-01-07T20:19:15.031Z","Humboldt County Probation Department","2002 Harrison Ave, Eureka, CA 95501, United States","-124.1413663","40.7894024","Humboldt County","ChIJG0g-mcn_01QReWXan_tZPuI","CA"
"Kings County Jail","California - Kings County","CA","ICS","2021-01-07T20:19:24.451Z","Kings County Jail","1570 Kings County Dr, Hanford, CA 93230, United States","-119.6696196","36.3327646","Kings County","ChIJqVsLgpHDlIARzCqcnrxgxTk","CA"
"Kings County Branch Jail","California - Kings County","CA","ICS","2021-01-07T20:19:27.428Z","Kings County Jail","1570 Kings County Dr, Hanford, CA 93230, United States","-119.6696196","36.3327646","Kings County","ChIJqVsLgpHDlIARzCqcnrxgxTk","CA"
"Kings County Juvenile Institution","California - Kings County","CA","ICS","2021-01-07T20:19:31.664Z","Kings County Juvenile Center","1450 Forum Dr, Hanford, CA 93230, United States","-119.6674356","36.33123080000001","Kings County","ChIJg8Cjq5bDlIAR79Z0qaDEHuE","CA"
"Kings County Jail","California - Kings County Juvenile Institution","CA","ICS","2021-01-07T20:19:40.760Z","Kings County Jail","1570 Kings County Dr, Hanford, CA 93230, United States","-119.6696196","36.3327646","Kings County","ChIJqVsLgpHDlIARzCqcnrxgxTk","CA"
"Kings County Branch Jail","California - Kings County Juvenile Institution","CA","ICS","2021-01-07T20:19:43.358Z","Kings County Jail","1570 Kings County Dr, Hanford, CA 93230, United States","-119.6696196","36.3327646","Kings County","ChIJqVsLgpHDlIARzCqcnrxgxTk","CA"
"Kings County Juvenile Institution","California - Kings County Juvenile Institution","CA","ICS","2021-01-07T20:19:46.856Z","Kings County Juvenile Center","1450 Forum Dr, Hanford, CA 93230, United States","-119.6674356","36.33123080000001","Kings County","ChIJg8Cjq5bDlIAR79Z0qaDEHuE","CA"
"Lake County Jail","California - Lake County Sheriffs Office","CA","ICS","2021-01-07T20:19:55.560Z","Lake County Jail","4913 Helbush Dr, Lakeport, CA 95453, United States","-122.9135069","39.103959","Lake County","ChIJ7dohrMPng4ARzlxZXsM3NG4","CA"
"Mendocino County Jail","California - Mendocino County Sheriffs Office","CA","ICS","2021-01-07T20:20:04.084Z","Mendocino County Jail","951 Low Gap Rd, Ukiah, CA 95482, United States","-123.2195773","39.16009409999999","Mendocino County","ChIJm6kv8zplgYAR4Ntsbmr9i5k","CA"
"Mendocino County Juvenile  Hall","California - Mendocino County Sheriffs Office","CA","ICS","2021-01-07T20:20:07.455Z","Mendocino County Juvenile Hall","585 Low Gap Rd, Ukiah, CA 95482, United States","-123.216873","39.15962","Mendocino County","ChIJ-TcxpCFlgYAR_aIJViujd0c","CA"
"Placer County Jail","California - Placer County Sheriffs Office","CA","ICS","2021-01-07T20:20:18.365Z","South Placer County Jail","11801 Go For Broke Rd, Roseville, CA 95678, United States","-121.3014795","38.8078457","Placer County","ChIJZRO3SzEim4ARoXfRxj6TiDY","CA"
"Placer Juvenile Detention Facility","California - Placer County Sheriffs Office","CA","ICS","2021-01-07T20:20:21.423Z","Placer County Probation Juvenile Detention Facility","11260 B Ave, Auburn, CA 95603, United States","-121.1086687","38.9367069","Placer County","ChIJmYotcW4Qm4ARDQICnEiXpm8","CA"
"South Placer Adult Correctional Facility","California - Placer County Sheriffs Office","CA","ICS","2021-01-07T20:20:25.356Z","South Placer County Jail","11801 Go For Broke Rd, Roseville, CA 95678, United States","-121.3014795","38.8078457","Placer County","ChIJZRO3SzEim4ARoXfRxj6TiDY","CA"
"Rio Cosumnes Corr. Center","California - Sacramento County Sheriff","CA","ICS","2021-01-07T20:20:35.060Z","Rio Cosumnes Correctional Center","12500 Bruceville Rd, Elk Grove, CA 95757, United States","-121.4216794","38.3063235","Sacramento County","ChIJBU3IdYu5moARitHS0t45tUg","CA"
"Sacramento Juvenile Detention","California - Sacramento County Sheriff","CA","ICS","2021-01-07T20:20:38.424Z","Sacramento County Juvenile Hall","9601 Kiefer Blvd, Sacramento, CA 95827, United States","-121.3411412","38.5464838","Sacramento County","ChIJEYKdmUXDmoARIXIBib9KhS8","CA"
"Sacramento Main Jail","California - Sacramento County Sheriff","CA","ICS","2021-01-07T20:20:42.427Z","Sacramento County Main Jail","651 I St, Sacramento, CA 95814, United States","-121.4975867","38.5828369","Sacramento County","ChIJ87WbpizRmoAR_hatsaah_3g","CA"
"Maguire Correctional Facility","California - San Mateo County Sheriffs Office","CA","ICS","2021-01-07T20:20:52.659Z","Maguire Correctional Facility","300 Bradford St, Redwood City, CA 94063, United States","-122.2317061","37.487997","San Mateo County","ChIJWWEidk2ij4ARMn32p2jVyJY","CA"
"Maple Street Correctional Center","California - San Mateo County Sheriffs Office","CA","ICS","2021-01-07T20:20:55.453Z","Maple Street Correctional Center","Redwood City, CA 94063, United States","-122.2194058","37.4930962","San Mateo County","ChIJL9foXP-ij4ARK1D6pJb2Smo","CA"
"Santa Cruz Main Jail","California - Santa Cruz County Sheriff","CA","ICS","2021-01-07T20:21:05.663Z","County Jail Administration","259 Water St, Santa Cruz, CA 95060, United States","-122.0238627","36.9801354","Santa Cruz County","ChIJCyhg3iRAjoAR2i1XGlVpffA","CA"
"Santa Cruz Farm","California - Santa Cruz County Sheriff","CA","ICS","2021-01-07T20:21:08.456Z","CASFS Farm And Garden","Santa Cruz, CA 95064, United States","-122.0555161","36.9838764","Santa Cruz County","ChIJKQ6o075BjoARwgplmrUUSBA","CA"
"Santa Cruz County Jail","California - Santa Cruz County Sheriff","CA","ICS","2021-01-07T20:21:12.647Z","County Jail Administration","259 Water St, Santa Cruz, CA 95060, United States","-122.0238627","36.9801354","Santa Cruz County","ChIJCyhg3iRAjoAR2i1XGlVpffA","CA"
"Santa Cruz Blaine","California - Santa Cruz County Sheriff","CA","ICS","2021-01-07T20:21:16.232Z","Blaine St","Blaine St, Santa Cruz, CA 95060, USA","-122.0232796","36.9809297","Santa Cruz County","ChIJcyZZzCRAjoAR5ZX7SO-0Jr0","CA"
"Santa Cruz Rountree","California - Santa Cruz County Sheriff","CA","ICS","2021-01-07T20:21:20.056Z","Rountree Ln","Rountree Ln, California 95076, USA","-121.8088207","36.9144547","undefined","ChIJP-PyzYMajoARClYXasFBtdU","CA"
"Stanislaus County Juvenile Hall","California - Stanislaus County Sheriffs Department","CA","ICS","2021-01-07T20:21:29.462Z","Stanislaus County Juvenile Ct","2215 Blue Gum Ave, Modesto, CA 95358, United States","-121.043251","37.6611251","Stanislaus County","ChIJ96sZkZlRkIAR16XL-yOUv5c","CA"
"Stanislaus County REACT Center","California - Stanislaus County Sheriffs Department","CA","ICS","2021-01-07T20:21:32.140Z","Stanislaus County Public Safety Center","200 Hackett Rd, Modesto, CA 95358, United States","-120.9898727","37.5852702","Stanislaus County","ChIJUX7W06qskYARWFlw_kL25Ak","CA"
"Stanislaus County Sheriff Detention Center West","California - Stanislaus County Sheriffs Department","CA","ICS","2021-01-07T20:21:35.452Z","Stanislaus County Men's Jail","1115 H St, Modesto, CA 95354, United States","-120.9965622","37.6402111","Stanislaus County","ChIJI0vkBY1TkIARilDbHL6Ebyw","CA"
"Stanislaus County Juvenile Commitment Facility","California - Stanislaus County Sheriffs Department","CA","ICS","2021-01-07T20:21:39.661Z","Stanislaus County Juvenile Commitment Facility","2215-A Blue Gum Ave, Modesto, CA 95358, United States","-121.043017","37.6622352","Stanislaus County","ChIJOZI13olRkIAR8F1xtrZ7ZXs","CA"
"Stanislaus County Sheriff Detention Center East","California - Stanislaus County Sheriffs Department","CA","ICS","2021-01-07T20:21:42.830Z","Stanislaus County Public Safety Center","200 Hackett Rd, Modesto, CA 95358, United States","-120.9898727","37.5852702","Stanislaus County","ChIJUX7W06qskYARWFlw_kL25Ak","CA"
"Stanilaus County Mens Jail","California - Stanislaus County Sheriffs Department","CA","ICS","2021-01-07T20:21:46.963Z","Stanislaus County Men's Jail","1115 H St, Modesto, CA 95354, United States","-120.9965622","37.6402111","Stanislaus County","ChIJI0vkBY1TkIARilDbHL6Ebyw","CA"
"Minimum Housing 1 & 2","California - Stanislaus County Sheriffs Department","CA","ICS","2021-01-07T20:21:51.799Z","NYC Rent Guidelines Board","1 Centre St # 2210, New York, NY 10007, United States","-74.00354589999999","40.7129057","New York County","ChIJteaKHSJawokRzVVltOP7Wss","CA"
"Tehama County Jail","California - Tehama County Jail","CA","ICS","2021-01-07T20:22:02.056Z","Tehama County Jail","502 Oak St, Red Bluff, CA 96080, United States","-122.2367612","40.1755757","Tehama County","ChIJYzT5BryDgoAR7r3252aS6d0","CA"
"Adams County Sheriffs Dept","Colorado - Adams County","CO","ICS","2021-01-07T20:22:12.963Z","Adams County Sheriff's Office","4430 S Adams County Pkwy 1st Floor, Suite W5400, Brighton, CO 80601, United States","-104.8127221","39.9236082","Adams County","ChIJvXTV8idtbIcRCHj8G0QDB88","CO"
"Larimer Community Corrections","Colorado - Larimer County Criminal Justice Services Division","CO","ICS","2021-01-07T20:22:22.261Z","Larimer County Community Corrections","2255 Midpoint Dr, Fort Collins, CO 80525, United States","-105.0359036","40.5648652","Larimer County","ChIJyd-MuS1LaYcReuutym6uWlI","CO"
"Larimer County Alternative Sentencing","Colorado - Larimer County Criminal Justice Services Division","CO","ICS","2021-01-07T20:22:25.334Z","Larimer County Alternative Sentencing","2307 Midpoint Dr, Fort Collins, CO 80525, United States","-105.0351942","40.5644792","Larimer County","ChIJCdCsxFJLaYcR3slVUsffOkc","CO"
"Larimer County Detention Center","Colorado - Larimer County Jail","CO","ICS","2021-01-07T20:22:36.360Z","Larimer County Jail","2405 Midpoint Dr, Fort Collins, CO 80525, United States","-105.033295","40.5642319","Larimer County","ChIJKcEIRy1LaYcR4IAPXUNC8w4","CO"
"Mesa County Detention Facility","Colorado - Mesa County Sheriffs Office","CO","ICS","2021-01-07T20:22:46.061Z","Mesa County Sheriff's Office","215 Rice St, Grand Junction, CO 81501, United States","-108.5735321","39.0686447","Mesa County","ChIJrdOd4vQcR4cRq5j0OXPhXwk","CO"
"Mesa County Criminal Justice  - Powell","Colorado - Mesa County Sheriffs Office","CO","ICS","2021-01-07T20:22:48.788Z","Mesa County Criminial Justice","636 South Ave, Grand Junction, CO 81501, United States","-108.5621814","39.06368459999999","Mesa County","ChIJDaNrhGYcR4cR02lKIRaubvA","CO"
"Mesa County Criminal Justice - Bridger","Colorado - Mesa County Sheriffs Office","CO","ICS","2021-01-07T20:22:52.133Z","Mesa County Criminial Justice","636 South Ave, Grand Junction, CO 81501, United States","-108.5621814","39.06368459999999","Mesa County","ChIJDaNrhGYcR4cR02lKIRaubvA","CO"
"Mesa County Criminal Justice - Chipeta","Colorado - Mesa County Sheriffs Office","CO","ICS","2021-01-07T20:22:56.138Z","Mesa County Criminial Justice","636 South Ave, Grand Junction, CO 81501, United States","-108.5621814","39.06368459999999","Mesa County","ChIJDaNrhGYcR4cR02lKIRaubvA","CO"
"Mesa County Criminal Justice - Escalante","Colorado - Mesa County Sheriffs Office","CO","ICS","2021-01-07T20:23:00.139Z","Mesa County Criminial Justice","636 South Ave, Grand Junction, CO 81501, United States","-108.5621814","39.06368459999999","Mesa County","ChIJDaNrhGYcR4cR02lKIRaubvA","CO"
"Mesa County Detention Facility","Colorado - Mesa County Criminal Justice - Powell","CO","ICS","2021-01-07T20:23:10.062Z","Mesa County Sheriff's Office","215 Rice St, Grand Junction, CO 81501, United States","-108.5735321","39.0686447","Mesa County","ChIJrdOd4vQcR4cRq5j0OXPhXwk","CO"
"Mesa County Criminal Justice  - Powell","Colorado - Mesa County Criminal Justice - Powell","CO","ICS","2021-01-07T20:23:14.231Z","Mesa County Criminial Justice","636 South Ave, Grand Junction, CO 81501, United States","-108.5621814","39.06368459999999","Mesa County","ChIJDaNrhGYcR4cR02lKIRaubvA","CO"
"Mesa County Criminal Justice - Bridger","Colorado - Mesa County Criminal Justice - Powell","CO","ICS","2021-01-07T20:23:18.557Z","Mesa County Criminial Justice","636 South Ave, Grand Junction, CO 81501, United States","-108.5621814","39.06368459999999","Mesa County","ChIJDaNrhGYcR4cR02lKIRaubvA","CO"
"Mesa County Criminal Justice - Chipeta","Colorado - Mesa County Criminal Justice - Powell","CO","ICS","2021-01-07T20:23:21.656Z","Mesa County Criminial Justice","636 South Ave, Grand Junction, CO 81501, United States","-108.5621814","39.06368459999999","Mesa County","ChIJDaNrhGYcR4cR02lKIRaubvA","CO"
"Mesa County Criminal Justice - Escalante","Colorado - Mesa County Criminal Justice - Powell","CO","ICS","2021-01-07T20:23:27.858Z","Mesa County Criminial Justice","636 South Ave, Grand Junction, CO 81501, United States","-108.5621814","39.06368459999999","Mesa County","ChIJDaNrhGYcR4cR02lKIRaubvA","CO"
"Mesa County Detention Facility","Colorado - Mesa County Criminal Justice - Bridger","CO","ICS","2021-01-07T20:23:38.959Z","Mesa County Sheriff's Office","215 Rice St, Grand Junction, CO 81501, United States","-108.5735321","39.0686447","Mesa County","ChIJrdOd4vQcR4cRq5j0OXPhXwk","CO"
"Mesa County Criminal Justice  - Powell","Colorado - Mesa County Criminal Justice - Bridger","CO","ICS","2021-01-07T20:23:41.417Z","Mesa County Criminial Justice","636 South Ave, Grand Junction, CO 81501, United States","-108.5621814","39.06368459999999","Mesa County","ChIJDaNrhGYcR4cR02lKIRaubvA","CO"
"Mesa County Criminal Justice - Bridger","Colorado - Mesa County Criminal Justice - Bridger","CO","ICS","2021-01-07T20:23:44.571Z","Mesa County Criminial Justice","636 South Ave, Grand Junction, CO 81501, United States","-108.5621814","39.06368459999999","Mesa County","ChIJDaNrhGYcR4cR02lKIRaubvA","CO"
"Mesa County Criminal Justice - Chipeta","Colorado - Mesa County Criminal Justice - Bridger","CO","ICS","2021-01-07T20:23:48.862Z","Mesa County Criminial Justice","636 South Ave, Grand Junction, CO 81501, United States","-108.5621814","39.06368459999999","Mesa County","ChIJDaNrhGYcR4cR02lKIRaubvA","CO"
"Mesa County Criminal Justice - Escalante","Colorado - Mesa County Criminal Justice - Bridger","CO","ICS","2021-01-07T20:23:53.344Z","Mesa County Criminial Justice","636 South Ave, Grand Junction, CO 81501, United States","-108.5621814","39.06368459999999","Mesa County","ChIJDaNrhGYcR4cR02lKIRaubvA","CO"
"Mesa County Detention Facility","Colorado - Mesa County Criminal Justice - Chipeta","CO","ICS","2021-01-07T20:24:05.891Z","Mesa County Sheriff's Office","215 Rice St, Grand Junction, CO 81501, United States","-108.5735321","39.0686447","Mesa County","ChIJrdOd4vQcR4cRq5j0OXPhXwk","CO"
"Mesa County Criminal Justice  - Powell","Colorado - Mesa County Criminal Justice - Chipeta","CO","ICS","2021-01-07T20:24:09.450Z","Mesa County Criminial Justice","636 South Ave, Grand Junction, CO 81501, United States","-108.5621814","39.06368459999999","Mesa County","ChIJDaNrhGYcR4cR02lKIRaubvA","CO"
"Mesa County Criminal Justice - Bridger","Colorado - Mesa County Criminal Justice - Chipeta","CO","ICS","2021-01-07T20:24:13.972Z","Mesa County Criminial Justice","636 South Ave, Grand Junction, CO 81501, United States","-108.5621814","39.06368459999999","Mesa County","ChIJDaNrhGYcR4cR02lKIRaubvA","CO"
"Mesa County Criminal Justice - Chipeta","Colorado - Mesa County Criminal Justice - Chipeta","CO","ICS","2021-01-07T20:24:17.928Z","Mesa County Criminial Justice","636 South Ave, Grand Junction, CO 81501, United States","-108.5621814","39.06368459999999","Mesa County","ChIJDaNrhGYcR4cR02lKIRaubvA","CO"
"Mesa County Criminal Justice - Escalante","Colorado - Mesa County Criminal Justice - Chipeta","CO","ICS","2021-01-07T20:24:22.645Z","Mesa County Criminial Justice","636 South Ave, Grand Junction, CO 81501, United States","-108.5621814","39.06368459999999","Mesa County","ChIJDaNrhGYcR4cR02lKIRaubvA","CO"
"Mesa County Detention Facility","Colorado - Mesa County Criminal Justice - Escalante","CO","ICS","2021-01-07T20:24:33.581Z","Mesa County Sheriff's Office","215 Rice St, Grand Junction, CO 81501, United States","-108.5735321","39.0686447","Mesa County","ChIJrdOd4vQcR4cRq5j0OXPhXwk","CO"
"Mesa County Criminal Justice  - Powell","Colorado - Mesa County Criminal Justice - Escalante","CO","ICS","2021-01-07T20:24:36.733Z","Mesa County Criminial Justice","636 South Ave, Grand Junction, CO 81501, United States","-108.5621814","39.06368459999999","Mesa County","ChIJDaNrhGYcR4cR02lKIRaubvA","CO"
"Mesa County Criminal Justice - Bridger","Colorado - Mesa County Criminal Justice - Escalante","CO","ICS","2021-01-07T20:24:40.854Z","Mesa County Criminial Justice","636 South Ave, Grand Junction, CO 81501, United States","-108.5621814","39.06368459999999","Mesa County","ChIJDaNrhGYcR4cR02lKIRaubvA","CO"
"MESQUITE CITY POLICE DEPT","","NV","SECURUS","2021-01-09T00:23:38.519Z","Mesquite Police Department","695 Mayan Cir, Mesquite, NV 89027, United States","-114.0890153","36.8221349","Clark County","ChIJsz5OQQQryoARG40m5XPRdGo","NV"
"Mesa County Criminal Justice - Chipeta","Colorado - Mesa County Criminal Justice - Escalante","CO","ICS","2021-01-07T20:24:44.056Z","Mesa County Criminial Justice","636 South Ave, Grand Junction, CO 81501, United States","-108.5621814","39.06368459999999","Mesa County","ChIJDaNrhGYcR4cR02lKIRaubvA","CO"
"Mesa County Criminal Justice - Escalante","Colorado - Mesa County Criminal Justice - Escalante","CO","ICS","2021-01-07T20:24:47.330Z","Mesa County Criminial Justice","636 South Ave, Grand Junction, CO 81501, United States","-108.5621814","39.06368459999999","Mesa County","ChIJDaNrhGYcR4cR02lKIRaubvA","CO"
"Delaware County Jail","Ohio - Delaware County Sheriffs Office","DE","ICS","2021-01-07T20:25:03.690Z","Delaware County Sheriff","201 W Front St, Media, PA 19063, United States","-75.39127599999999","39.9197128","Delaware County","ChIJYf1YjgjpxokRTPMnDnGMVDE","DE"
"GEO South Bay Correctional Facility","Florida - GEO South Bay Correctional Facility","FL","ICS","2021-01-07T20:25:15.789Z","South Bay Correctional Facility","600 US-27, South Bay, FL 33493, United States","-80.71873060000001","26.6577441","Palm Beach County","ChIJ7UdB_uBZ2YgRS5pP9vUneno","FL"
"Hamilton County Sheriff","Florida - Hamilton County","FL","ICS","2021-01-07T20:25:24.763Z","Hamilton County Sheriff's Office","3995 Co Rd 51, Jasper, FL 32052, United States","-82.9414029","30.5262629","Hamilton County","ChIJ-Tu_2y397ogRHGynMnenDYg","FL"
"Hernando County","Florida - Hernando County","FL","ICS","2021-01-07T20:25:32.993Z","Hernando County","Hernando County, FL, USA","-82.4752757","28.5578826","Hernando County","ChIJYW9IKOH754gR_4iRE0VRW9o","FL"
"Transition House","Florida - Kissimmee County/Transition House","FL","ICS","2021-01-07T20:25:41.666Z","The Transition House, Inc. - Residential Program","3800 5th St, St Cloud, FL 34769, United States","-81.3113594","28.2536829","Osceola County","ChIJEX8wIaeP3YgRkhSwEFf2qUk","FL"
"Lafayette","Florida - Lafayette County","FL","ICS","2021-01-07T20:25:51.151Z","Lafayette County","Lafayette County, FL, USA","-83.2077645","30.0299573","Lafayette County","ChIJgcketiYz6YgR5oQe9Dio1l4","FL"
"Main Detention Center","Florida - Monroe County Sheriff","FL","ICS","2021-01-07T20:25:58.957Z","Palm Beach County Main Detention Center","3228 Gun Club Rd, West Palm Beach, FL 33406, United States","-80.0925287","26.6703543","Palm Beach County","ChIJ71NwntnX2IgR9L6fTFEEKyA","FL"
"Marathon Detention Center","Florida - Monroe County Sheriff","FL","ICS","2021-01-07T20:26:01.159Z","Monroe County Detention Facility","3981 Ocean Terrace, Marathon, FL 33050, United States","-81.0878422","24.7115465","Monroe County","ChIJCwfZ7Lbe0IgRHc0WScIvVBY","FL"
"Plantation Detention Center","Florida - Monroe County Sheriff","FL","ICS","2021-01-07T20:26:04.856Z","Plantation Key Detention Center","53 High Point Rd, Tavernier, FL 33070, United States","-80.55140639999999","24.9797769","Monroe County","ChIJCXLjmqk414gRFVJ4Kt_syl0","FL"
"Osceola County Correctional Facility","Florida - Osceola County Corrections","FL","ICS","2021-01-07T20:26:13.164Z","Osceola County Corrections Department","402 Simpson Rd, Kissimmee, FL 34744, United States","-81.3524024","28.2955821","Osceola County","ChIJuT8vQOWF3YgRqL0g1GmKK6w","FL"
"Land O Lakes Detention Center","Florida - Pasco County Sheriff","FL","ICS","2021-01-07T20:26:21.261Z","Pasco County Jail","20101 Central Blvd, Land O' Lakes, FL 34637, United States","-82.4831272","28.3061729","Pasco County","ChIJez0sckCjwogRhJdjZD701qw","FL"
"Volusia County Correctional Facility","Florida - Volusia County","FL","ICS","2021-01-07T20:26:28.369Z","Volusia County Correctional Facility","1354 Indian Lake Rd, Daytona Beach, FL 32124, United States","-81.1460511","29.1389955","Volusia County","ChIJEadE5Ozf5ogRScjCP-UHsI8","FL"
"Volusia County Branch Jail","Florida - Volusia County","FL","ICS","2021-01-07T20:26:31.055Z","Volusia County Jail","1300 Red John Dr, Daytona Beach, FL 32124, United States","-81.14938719999999","29.1410329","Volusia County","ChIJKy8gRe7f5ogRq1FMxKqw7H4","FL"
"JAOT - offsite housing","Florida - Volusia County","FL","ICS","2021-01-07T20:26:35.137Z","Off Campus Housing","1550 Melvin St, Tallahassee, FL 32301, United States","-84.28383699999999","30.427231","Leon County","ChIJL5fnx2n17IgRR0KpXeK7IQM","FL"
"Washington County Jail","Florida - Washington County Sheriffs Office","FL","ICS","2021-01-07T20:26:44.472Z","Washington County Jail Administration","1100 Brickyard Rd, Chipley, FL 32428, United States","-85.52224","30.765181","Washington County","ChIJSbJ6sX0Bk4gRQv6CLJSoCrk","FL"
"Treasure Coast Forensic Treatment Center","Florida - Wellpath Treasure Coast Forensic Treatment Center","FL","ICS","2021-01-07T20:26:53.074Z","Treasure Coast Forensic Treatment Center","96 SW Allapatah Rd, Indiantown, FL 34956, United States","-80.4828496","27.2045509","Martin County","ChIJ74nMZsa43ogRMaWDDmkQp5g","FL"
"Bartow County Jail","Georgia - Bartow County Sheriffs Office","GA","ICS","2021-01-07T20:27:02.957Z","Bartow County Sheriff's Office","104 Zena Dr, Cartersville, GA 30121, United States","-84.77819819999999","34.1914749","Bartow County","ChIJ6QEz4o5P9YgRjUnWYnzPH5o","GA"
"Bulloch County Prison","Georgia - Bulloch County","GA","ICS","2021-01-07T20:27:10.663Z","Bulloch County Sheriff Department","17301 US-301 N, Statesboro, GA 30458, United States","-81.7670538","32.4667672","Bulloch County","ChIJ8xVBFbk4-ogRbeOGY6YhJyM","GA"
"Carroll County Prison","Georgia - Carroll County Prison","GA","ICS","2021-01-07T20:27:18.169Z","Carroll County Prison","96 Horsley Mill Rd, Carrollton, GA 30117, United States","-85.0463552","33.578784","Carroll County","ChIJg8ctFO0ui4gR_SYuWQXjnD0","GA"
"City of Atlanta Jail","Georgia - City of Atlanta","GA","ICS","2021-01-07T20:27:25.659Z","Fulton County Jail","901 Rice St NW, Atlanta, GA 30318, United States","-84.4236554","33.7789069","Fulton County","ChIJU-BtMLkE9YgRMJSE1nQh0jE","GA"
"Coweta County Prison","Georgia - Coweta County","GA","ICS","2021-01-07T20:27:33.167Z","Coweta County Jail","560 Greison Trail, Newnan, GA 30263, United States","-84.7834839","33.3818445","Coweta County","ChIJ7xKkmIXI9IgRTR4O359PR5s","GA"
"Coweta County Work Release","Georgia - Coweta County","GA","ICS","2021-01-07T20:27:36.197Z","Coweta County Jail","560 Greison Trail, Newnan, GA 30263, United States","-84.7834839","33.3818445","Coweta County","ChIJ7xKkmIXI9IgRTR4O359PR5s","GA"
"Dawson County Detention Center","Georgia - Dawson County Detention Center","GA","ICS","2021-01-07T20:27:44.266Z","Dawson County Detention Center","19 Tucker Ave, Dawsonville, GA 30534, United States","-84.120002","34.422357","Dawson County","ChIJvxmqyNx8X4gRXTJqlT1J7Zk","GA"
"Decatur County Prison","Georgia - Decatur County","GA","ICS","2021-01-07T20:27:52.262Z","Decatur County Farm","1153 Airport Rd, Bainbridge, GA 39817, United States","-84.60242459999999","30.9078559","Decatur County","ChIJE6R-YJwY7YgRWX1FOBEpo4w","GA"
"Decatur County Jail","Georgia - Decatur County Jail","GA","ICS","2021-01-07T20:27:59.463Z","Decatur County Jail","912 Spring Creek Rd, Bainbridge, GA 39817, United States","-84.6008911","30.9077651","Decatur County","ChIJg5g44JoY7YgRQG_7ROawrNE","GA"
"Floyd County Jail","Georgia - Floyd County Jail","GA","ICS","2021-01-07T20:28:05.959Z","Floyd County Jail","2526 New Calhoun Hwy NE, Rome, GA 30161, United States","-85.1416163","34.2799192","Floyd County","ChIJg-6EigCliogR1q-UMZqOFHk","GA"
"Floyd County Prison","Georgia - Floyd County Jail","GA","ICS","2021-01-07T20:28:08.673Z","Floyd County Prison","329 Blacks Bluff Rd SW, Rome, GA 30161, United States","-85.1994507","34.2208246","Floyd County","ChIJW6Xwpry8iogRLzcL-iFubzc","GA"
"Floyd County Work Release Center","Georgia - Floyd County Jail","GA","ICS","2021-01-07T20:28:12.238Z","Floyd County Prison","329 Blacks Bluff Rd SW, Rome, GA 30161, United States","-85.1994507","34.2208246","Floyd County","ChIJW6Xwpry8iogRLzcL-iFubzc","GA"
"Floyd County Jail","Georgia - Floyd County Prison","GA","ICS","2021-01-07T20:28:20.270Z","Floyd County Jail","2526 New Calhoun Hwy NE, Rome, GA 30161, United States","-85.1416163","34.2799192","Floyd County","ChIJg-6EigCliogR1q-UMZqOFHk","GA"
"Floyd County Prison","Georgia - Floyd County Prison","GA","ICS","2021-01-07T20:28:22.659Z","Floyd County Prison","329 Blacks Bluff Rd SW, Rome, GA 30161, United States","-85.1994507","34.2208246","Floyd County","ChIJW6Xwpry8iogRLzcL-iFubzc","GA"
"Floyd County Work Release Center","Georgia - Floyd County Prison","GA","ICS","2021-01-07T20:28:25.660Z","Floyd County Prison","329 Blacks Bluff Rd SW, Rome, GA 30161, United States","-85.1994507","34.2208246","Floyd County","ChIJW6Xwpry8iogRLzcL-iFubzc","GA"
"Floyd County Jail","Georgia - Floyd County Work Release Center","GA","ICS","2021-01-07T20:28:33.973Z","Floyd County Jail","2526 New Calhoun Hwy NE, Rome, GA 30161, United States","-85.1416163","34.2799192","Floyd County","ChIJg-6EigCliogR1q-UMZqOFHk","GA"
"Floyd County Prison","Georgia - Floyd County Work Release Center","GA","ICS","2021-01-07T20:28:36.957Z","Floyd County Prison","329 Blacks Bluff Rd SW, Rome, GA 30161, United States","-85.1994507","34.2208246","Floyd County","ChIJW6Xwpry8iogRLzcL-iFubzc","GA"
"Floyd County Work Release Center","Georgia - Floyd County Work Release Center","GA","ICS","2021-01-07T20:28:40.069Z","Floyd County Prison","329 Blacks Bluff Rd SW, Rome, GA 30161, United States","-85.1994507","34.2208246","Floyd County","ChIJW6Xwpry8iogRLzcL-iFubzc","GA"
"Hall County Correctional Instutution","Georgia - Hall County Correctional Institution","GA","ICS","2021-01-07T20:28:48.963Z","Hall County Correctional Institution","1694 Barber Rd, Gainesville, GA 30507, United States","-83.8133735","34.2394936","Hall County","ChIJz0SeaBjx9YgR6lOHK_z7wtI","GA"
"Jackson County Correctional Institution","Georgia - Jackson County Correctional Institution","GA","ICS","2021-01-07T20:28:56.970Z","Jackson County Correctional Institution","265 I W Davis Rd, Jefferson, GA 30549, United States","-83.5568361","34.1517632","Jackson County","ChIJ6YMuiZwJ9ogRUuFNXeloJx4","GA"
"Mitchell County Correctional Institute","Georgia - Mitchell County Correctional Institute","GA","ICS","2021-01-07T20:29:05.666Z","Mitchell County Correctional Institute","4838 GA-37 East, Camilla, GA 31730, United States","-84.1801681","31.2321701","Mitchell County","ChIJM2Dm5fqb7YgRurSkRQjRxkA","GA"
"Mitchell County Jail","Georgia - Mitchell County Sheriffs Office","GA","ICS","2021-01-07T20:29:14.065Z","Mitchell County Justice Center","4815 GA-37, Camilla, GA 31730, United States","-84.1787643","31.2312355","Mitchell County","ChIJBcTOV_qb7YgRdeucK1Ir-Es","GA"
"Richmond County Correctional Institute","Georgia - Richmond County Correctional Institute","GA","ICS","2021-01-07T20:29:23.357Z","Richmond County Correctional Institution","2314 Tobacco Rd, Augusta, GA 30906, United States","-82.0390109","33.3737368","Richmond County","ChIJgf-WQ-PP-YgRLWiEZZ9CIoM","GA"
"Screven County Correctional Institute","Georgia - Screven County Correctional Institute","GA","ICS","2021-01-07T20:29:30.962Z","Screven County Jail","859 Rocky Ford Rd, Sylvania, GA 30467, United States","-81.6701884","32.750422","Screven County","ChIJ2VtuIoko-ogRpuA1EnzLdgw","GA"
"Screven County Firehouse","Georgia - Screven County Correctional Institute","GA","ICS","2021-01-07T20:29:34.366Z","Screven County Fire Department","618 US-301 Frontage, Sylvania, GA 30467, United States","-81.65123980000001","32.7606643","Screven County","ChIJ434j73qG-YgRADp1PftpbhU","GA"
"Spalding County Correctional Institution","Georgia - Spalding County Correctional Institution","GA","ICS","2021-01-07T20:29:43.959Z","Spalding County Correctional","295 Justice Blvd, Griffin, GA 30224, United States","-84.29272069999999","33.2358431","Spalding County","ChIJm3L2-z2K9IgRzCadEFGcDxY","GA"
"Terrell County Correctional Institute","Georgia - Terrell County Correctional Institute","GA","ICS","2021-01-07T20:29:52.059Z","Terrell County Prison","3110 Albany Hwy, Dawson, GA 39842, United States","-84.4144767","31.7421452","Terrell County","ChIJKSoAB0mO8ogR8DZnFEwWcZI","GA"
"Athens-Clarke County Correctional Institution","Georgia - The Unified Government of Athens-Clarke County","GA","ICS","2021-01-07T20:29:59.762Z","Athens-Clarke County Jail","3015 Lexington Rd, Athens, GA 30605, United States","-83.3278656","33.9445724","Clarke County","ChIJt2yx22Vr9ogRksortMqKWSU","GA"
"Athens-Clarke County Diversion Center","Georgia - The Unified Government of Athens-Clarke County","GA","ICS","2021-01-07T20:30:02.162Z","Athens Diversion Center","2725 Lexington Rd, Athens, GA 30605, United States","-83.33151629999999","33.9430555","Clarke County","ChIJCwBBAWlt9ogRexpnm9Qir3E","GA"
"Washington County Jail","Georgia - Washington County Sheriffs Office","GA","ICS","2021-01-07T20:30:12.163Z","Washington County Sheriff’s Office","733 Kaolin Rd, Sandersville, GA 31082, United States","-82.82048499999999","32.9651328","Washington County","ChIJeTEbSOAr94gR8nSN6FdkgPM","GA"
"South Boise Womens Correctional Center (SBWCC)","Idaho - Idaho Department Of Corrections","ID","ICS","2021-01-07T20:30:26.467Z","South Boise Women's Correctional Center","Idaho 83634, United States","-116.229973","43.481412","Ada County","ChIJ6y-wslJZrlQRhgBkGBYADu8","ID"
"South Idaho Correctional Institution (SICI)","Idaho - Idaho Department Of Corrections","ID","ICS","2021-01-07T20:30:29.238Z","South Idaho Correctional Institution (SICI)","13900 S Pleasant Valley Rd, Kuna, ID 83634, United States","-116.2117081","43.4759041","Ada County","ChIJBUEjMLherlQRGNiadyHWkfk","ID"
"Nampa CRC (N-CRC)","Idaho - Idaho Department Of Corrections","ID","ICS","2021-01-07T20:30:33.453Z","Community Work Center","1640 11th Ave N Ext, Nampa, ID 83687, United States","-116.5348384","43.5991009","Canyon County","ChIJydRw21pMrlQRSVHt8UxqgfY","ID"
"Twin Falls CRC (TF-CRC)","Idaho - Idaho Department Of Corrections","ID","ICS","2021-01-07T20:30:37.160Z","Twin Falls Reformed Church","1631 Grandview Dr N, Twin Falls, ID 83301, United States","-114.5022506","42.5905303","Twin Falls County","ChIJDcbhqHyirFQR9kUZIC-t5es","ID"
"Idaho State Correctional Center (ISCC)","Idaho - Idaho Department Of Corrections","ID","ICS","2021-01-07T20:30:40.147Z","Idaho State Correctional Center","14601 Pleasant Valley Rd, Kuna, ID 83634, United States","-116.2367628","43.4701947","Ada County","ChIJqSrUxgJcrlQRYOJCQ-jX6EE","ID"
"Idaho State Correctional Institution (ISCI)","Idaho - Idaho Department Of Corrections","ID","ICS","2021-01-07T20:30:43.733Z","Idaho State Correctional Institution (ISCI)","13500 Pleasant Valley Rd, Kuna, ID 83634, United States","-116.2203272","43.4775711","Ada County","ChIJzwr-K71drlQRe7SJaHvzXZs","ID"
"MISC-NON-DOC","Idaho - Idaho Department Of Corrections","ID","ICS","2021-01-07T20:30:48.237Z","Independent Doctors of Idaho - IDID","8854 Emerald St Ste 140, Boise, ID 83704, United States","-116.2924893","43.6122805","Ada County","ChIJ4Q5TxnFWrlQRILN9Q5WgOEM","ID"
"North Idaho Correctional Institution (NICI)","Idaho - Idaho Department Of Corrections","ID","ICS","2021-01-07T20:30:52.073Z","NICI","236 Radar Rd, Cottonwood, ID 83522, United States","-116.4283142","46.079914","Idaho County","ChIJMaq0Mv77oFQRqfdW1mWwTIg","ID"
"St. Anthony Work Camp (SAWC)","Idaho - Idaho Department Of Corrections","ID","ICS","2021-01-07T20:30:55.845Z","St Anthony Work Camp Doc","125 N 8th W, St Anthony, ID 83445, United States","-111.6933059","43.9680404","Fremont County","ChIJPyYvOWn6U1MR_uswwRcsm5I","ID"
"Idaho Falls CRC (IF-CRC)","Idaho - Idaho Department Of Corrections","ID","ICS","2021-01-07T20:30:59.676Z","Idaho Falls Community Work Center","3955 Bombardier Ave, Idaho Falls, ID 83402, United States","-112.0639854","43.462299","Bonneville County","ChIJP6C0HKtZVFMRzfvWdn_cPFI","ID"
"County Facilities","Idaho - Idaho Department Of Corrections","ID","ICS","2021-01-07T20:31:03.657Z","Intercounty Health Facilities","1615 Northern Blvd # 306, Manhasset, NY 11030, United States","-73.68725049999999","40.7946119","Nassau County","ChIJbwANC_eIwokRFNQynwR29cY","ID"
"Treasure Valley CRC (TV-CRC)","Idaho - Idaho Department Of Corrections","ID","ICS","2021-01-07T20:31:07.456Z","Treasure Valley Comm Resource","2412 E Chicago St # 110, Caldwell, ID 83605, United States","-116.6677955","43.6574262","Canyon County","ChIJ22qwE3a0r1QRHjW_a-QGuCs","ID"
"Correctional Alternative Placement Program (CAPP)","Idaho - Idaho Department Of Corrections","ID","ICS","2021-01-07T20:31:11.418Z","MTC Idaho Correctional Alternative Placement Program","15505 Pleasant Valley Rd, Kuna, ID 83634, United States","-116.2355655","43.4618288","Ada County","ChIJzwr-K71drlQRbYvlw5yTfAM","ID"
"Idaho Maximum Security Institution (IMSI)","Idaho - Idaho Department Of Corrections","ID","ICS","2021-01-07T20:31:15.722Z","Idaho Maximum Security Institution","IMSI, 13400 Pleasant Valley Rd, Kuna, ID 83634, United States","-116.2239148","43.4790447","Ada County","ChIJzwr-K71drlQRJ5pX45lCJNo","ID"
"East Boise CRC (EB-CRC)","Idaho - Idaho Department Of Corrections","ID","ICS","2021-01-07T20:31:19.334Z","East Boise Community Work Center","2366 Old Penitentiary Rd, Boise, ID 83712, United States","-116.1639462","43.6027419","Ada County","ChIJwzisk7r5rlQRmYFMkbvHRd4","ID"
"Idaho Correctional Institution-Orofino (ICIO)","Idaho - Idaho Department Of Corrections","ID","ICS","2021-01-07T20:31:23.353Z","Idaho Correctional Institution","381 W Hospital Dr, Orofino, ID 83544, United States","-116.2604201","46.4917508","Clearwater County","ChIJv_skRZRxoFQRpZ8YHCreQyo","ID"
"Pocatello Womens Correctional Center (PWCC)","Idaho - Idaho Department Of Corrections","ID","ICS","2021-01-07T20:31:27.954Z","Pocatello Women's Correctional","1451 Fore Rd, Pocatello, ID 83204, United States","-112.45025","42.8430134","Bannock County","ChIJ0wwxsF9OVVMR2xOVQEH9oeE","ID"
"Clinton County Jail","Illinois - Clinton County Sheriffs Office","IL","ICS","2021-01-07T20:31:40.967Z","Clinton County","Clinton County, IL, USA","-89.62516459999999","38.56844419999999","Clinton County","ChIJT1oudq93dogRCuZmt4SST9Y","IL"
"Fayette County Sheriffs Office","Illinois - Fayette County Sheriffs Office","IL","ICS","2021-01-07T20:31:49.761Z","Fayette County Courthouse and Jail","221 S 7th St, Vandalia, IL 62471, United States","-89.09946529999999","38.9600985","Fayette County","ChIJ4QATgd4_dIgRnjzDwJRS7xo","IL"
"Kane County Sheriffs Office","Illinois - Kane County Sheriffs Office","IL","ICS","2021-01-07T20:31:58.564Z","Kane County Sheriff's Office","37W755 IL-38 A, St. Charles, IL 60175, United States","-88.35574299999999","41.9003601","Kane County","ChIJJ8OH50HjDogRuDL8lfJF4T4","IL"
"Madison County Jail","Illinois - Madison County Sheriffs Office","IL","ICS","2021-01-07T20:32:07.958Z","Madison County Jail","405 Randle St, Edwardsville, IL 62025, United States","-89.95943679999999","38.812169","Madison County","ChIJ_2uuRNL5dYgRQUUevmcieTY","IL"
"Marion County Jail","Illinois - Marion County Sheriffs Office","IL","ICS","2021-01-07T20:32:17.871Z","Marion County Sheriff","204 N Washington St, Salem, IL 62881, United States","-88.9441796","38.6283957","Marion County","ChIJFx2ekOCndogR7VtY2Jcw8Pk","IL"
"McHenry County Correctional Facility","Illinois - McHenry County Sheriff","IL","ICS","2021-01-07T20:32:27.256Z","Mc Henry County Jail","2200 N Seminary Ave, Woodstock, IL 60098, United States","-88.4412449","42.341554","McHenry County","ChIJH_hSd6ppD4gRyjXOpRalKmw","IL"
"McLean County Adult Detention Facility","Illinois - McLean County","IL","ICS","2021-01-07T20:32:35.565Z","County Jail","104 W Front St, Bloomington, IL 61701, United States","-88.99399900000002","40.4778579","McLean County","ChIJdftVpsRxC4gRWY8EioN86pA","IL"
"Perry County Jail","Illinois - Perry County Sheriffs Office","IL","ICS","2021-01-07T20:32:44.560Z","Perry County Jail","12 E Water St, Pinckneyville, IL 62274, United States","-89.38204929999999","38.0804868","Perry County","ChIJSbaQqr_4dogRkcT-dFa_vj0","IL"
"Sangamon County Jail","Illinois - Sangamon County Sheriffs Office","IL","ICS","2021-01-07T20:32:53.763Z","Sangamon County Jail","1 Sheriff's Plaza, Springfield, IL 62701, United States","-89.64268679999999","39.7999898","Sangamon County","ChIJcwFQH-o5dYgRRr_zpLMeErc","IL"
"Blackford County Sheriffs Office","Indiana - Blackford County","IN","ICS","2021-01-07T20:33:04.753Z","Blackford County Sheriff","64 N 500 E, Hartford City, IN 47348, United States","-85.27726419999999","40.4505989","Blackford County","ChIJq2EOO6wMFYgR5MVDNdogFJw","IN"
"Boone County Jail","Indiana - Boone County Sheriffs Office","IN","ICS","2021-01-07T20:33:13.672Z","Boone County Sheriff's Office","1905 Indianapolis Ave, Lebanon, IN 46052, United States","-86.4495285","40.033089","Boone County","ChIJ859KG11OE4gR9RrECmmxTbA","IN"
"Dekalb County Community Corrections","Indiana - Dekalb County Community Corrections","IN","ICS","2021-01-07T20:33:23.464Z","Dekalb County Community Corrections","1000 Potter Dr, Auburn, IN 46706, United States","-85.087532","41.3748703","DeKalb County","ChIJR5fo8xAbFogRz2Tu7YVfAIs","IN"
"Dekalb County Sheriffs Office","Indiana - Dekalb County Sheriffs Office","IN","ICS","2021-01-07T20:33:33.385Z","DeKalb County Sheriff's Office","215 E 8th St, Auburn, IN 46706, United States","-85.05368790000001","41.366236","DeKalb County","ChIJQycE9Q8bFogRPPiPCaiOY08","IN"
"Fayette County Jail","Indiana - Fayette County Sheriffs Office","IN","ICS","2021-01-07T20:33:41.867Z","Fayette County Correction Department","412 N Central Ave, Connersville, IN 47331, United States","-85.139692","39.6407308","Fayette County","ChIJr4TQ_Xq7aogRaMOKtQCX-hc","IN"
"Huntington County Sheriffs Office","Indiana - Huntington County","IN","ICS","2021-01-07T20:33:51.384Z","Huntington County Sheriff's","332 E State St, Huntington, IN 46750, United States","-85.49134959999999","40.8805397","Huntington County","ChIJG6xmzNrJFYgRJxSskfEPyI4","IN"
"Steuben County Jail","Indiana - Steuben County Sheriffs Office","IN","ICS","2021-01-07T20:34:00.261Z","Steuben County Jail","206 E Gale St, Angola, IN 46703, United States","-84.9977073","41.6339423","Steuben County","ChIJIcOoOj8mFogR_8QbFzAMVy4","IN"
"Dubuque County Jail","Iowa - Dubuque County","IA","ICS","2021-01-07T20:34:11.981Z","Dubuque County Jail","770 Iowa St, Dubuque, IA 52001, United States","-90.66543050000001","42.5014453","Dubuque County","ChIJidtUYJor44cRpQ_TCkwkPuM","IA"
"Jasper County Jail","Iowa - Jasper County Sheriffs Office","IA","ICS","2021-01-07T20:34:20.479Z","Jasper County Jail","2300 Law Center Dr, Newton, IA 50208, United States","-92.9924601","41.67911489999999","Jasper County","ChIJi1KDK6cb74cRd1a_61RWoh8","IA"
"Phillips County Detention Center","Arkansas - Phillips County","KS","ICS","2021-01-07T20:34:30.578Z","Phillips County Sheriff Department","301 State St, Phillipsburg, KS 67661, United States","-99.32383999999999","39.7565359","Phillips County","ChIJs3sQazNQn4cRZEHXbU89FJY","KS"
"Leavenworth Detention Center","Kansas - Leavenworth Detention Center","KS","ICS","2021-01-07T20:34:37.967Z","Corrections Corporation of America","100 Hwy Terrace, Leavenworth, KS 66048, United States","-94.8920222","39.2724963","Leavenworth County","ChIJbSkMMjNjwIcRb-nLNXdUCMo","KS"
"Silverdale Detention Facilities","Kansas - Leavenworth Detention Center","KS","ICS","2021-01-07T20:34:45.265Z","Corrections Corporation of America","100 Hwy Terrace, Leavenworth, KS 66048, United States","-94.8920222","39.2724963","Leavenworth County","ChIJbSkMMjNjwIcRb-nLNXdUCMo","KS"
"Hardeman County Correctional Center","Kansas - Leavenworth Detention Center","KS","ICS","2021-01-07T20:34:53.249Z","Reno Country Correctional Facility","1800 S Severance St, Hutchinson, KS 67501, United States","-97.9117346","38.0294241","Reno County","ChIJXfoddcrJpIcRe81S9ywihXQ","KS"
"La Palma Correctional Center","Kansas - Leavenworth Detention Center","KS","ICS","2021-01-07T20:34:58.066Z","Lansing Correctional Facility","399, 301 E Kansas St, Lansing, KS 66043, United States","-94.89266479999999","39.249963","Leavenworth County","ChIJb-0zvtJiwIcRFYYWZ1Rgxz8","KS"
"West Tennessee Detention Facility","Kansas - Leavenworth Detention Center","KS","ICS","2021-01-07T20:35:01.864Z","West Tennessee Detention Facility","6299 Finde Naifeh Dr, Mason, TN 38049, United States","-89.5483177","35.4064431","Tipton County","ChIJTeudS6caf4gRFv4Dc3L3eH4","KS"
"Whiteville Correctional Facility","Kansas - Leavenworth Detention Center","KS","ICS","2021-01-07T20:35:05.866Z","Lansing Correctional Facility","399, 301 E Kansas St, Lansing, KS 66043, United States","-94.89266479999999","39.249963","Leavenworth County","ChIJb-0zvtJiwIcRFYYWZ1Rgxz8","KS"
"Tallahatchie County Correctional Facility","Kansas - Leavenworth Detention Center","KS","ICS","2021-01-07T20:35:10.179Z","Tallahatchie County Correction","415 US 49, Tutwiler, MS 38963, United States","-90.44626319999999","34.0269812","Tallahatchie County","ChIJj0J2RqHvKoYRos8aPbwvSxg","KS"
"Tallahatchie ICE","Kansas - Leavenworth Detention Center","KS","ICS","2021-01-07T20:35:13.488Z","US Marshal Department","444 SE 6th Ave # 456, Topeka, KS 66683, United States","-95.6703647","39.0529543","Shawnee County","ChIJtelRcQwDv4cRw69PIhnwz4E","KS"
"Nevada Southern Detention Center","Kansas - Leavenworth Detention Center","KS","ICS","2021-01-07T20:35:24.562Z","Nevada Southern Detention Center","2190 E Mesquite Ave, Pahrump, NV 89060, United States","-115.9769898","36.2527907","Nye County","ChIJISE2b-Y2xoARe1__mRxeaEo","KS"
"Douglas County Correctional Facility","Kansas - Douglas County","KS","ICS","2021-01-07T20:35:37.059Z","Douglas County Jail","3601 E 25th St, Lawrence, KS 66046, United States","-95.19426659999999","38.9379672","Douglas County","ChIJV-jZy2dmv4cRRFUcUnoVLFY","KS"
"Douglas offsite housing","Kansas - Douglas County","KS","ICS","2021-01-07T20:35:40.635Z","Lawrence-Douglas County Housing Authority","1600 Haskell Ave, Lawrence, KS 66044, United States","-95.22189619999999","38.95383169999999","Douglas County","ChIJQ6mJKP5lv4cRBpKEVa6u2co","KS"
"Finney County Jail","Kansas - Finney County Sheriffs Office","KS","ICS","2021-01-07T20:35:48.790Z","Finney County Jail","304 N 9th St, Garden City, KS 67846, United States","-100.8760076","37.9676988","Finney County","ChIJR61JWRDuCYcRbNCMfyCJTEM","KS"
"El Dorado","Kansas - Kansas Department of Corrections","KS","ICS","2021-01-07T20:35:56.771Z","El Dorado","El Dorado, KS 67042, USA","-96.8622524","37.81724","Butler County","ChIJ3Xu8VAazu4cR8_cz6LoamJo","KS"
"Larned","Kansas - Kansas Department of Corrections","KS","ICS","2021-01-07T20:35:59.990Z","Larned","Larned, KS 67550, USA","-99.09871299999999","38.18056929999999","Pawnee County","ChIJ9eysAFoCpIcROKvc3tsqUPY","KS"
"Ellsworth","Kansas - Kansas Department of Corrections","KS","ICS","2021-01-07T20:36:04.735Z","Ellsworth","Ellsworth, KS 67439, USA","-98.22811259999999","38.7305648","Ellsworth County","ChIJY3wu6XETo4cRWttf6Z18Q4Y","KS"
"El Dorado South East","Kansas - Kansas Department of Corrections","KS","ICS","2021-01-07T20:36:08.363Z","El Dorado","El Dorado, KS 67042, USA","-96.8622524","37.81724","Butler County","ChIJ3Xu8VAazu4cR8_cz6LoamJo","KS"
"Wichita","Kansas - Kansas Department of Corrections","KS","ICS","2021-01-07T20:36:12.869Z","Wichita","Wichita, KS, USA","-97.33005299999999","37.68717609999999","Sedgwick County","ChIJLRh_0mrbuocRPj3TdL_VlpM","KS"
"Winfield","Kansas - Kansas Department of Corrections","KS","ICS","2021-01-07T20:36:17.257Z","Winfield","Winfield, KS, USA","-96.9955918","37.2397486","Cowley County","ChIJ5wMO2NV6uocRiiiUMez7Bpg","KS"
"Hutchinson","Kansas - Kansas Department of Corrections","KS","ICS","2021-01-07T20:36:20.663Z","Hutchinson","Hutchinson, KS, USA","-97.92977429999999","38.0608445","Reno County","ChIJJ8FxVLLJpIcRO-3WEKCGqms","KS"
"All Facilities","Kansas - Kansas Department of Corrections","KS","ICS","2021-01-07T20:36:24.376Z","All Storage of Maize","5081 N Maize Rd, Maize, KS 67101, United States","-97.4635954","37.7766088","Sedgwick County","ChIJywKm2Eggu4cRgXp53y7GGrw","KS"
"LCF - Minimum Facility E","Kansas - Kansas Department of Corrections","KS","ICS","2021-01-07T20:36:28.036Z","LCF","399, 301 E Kansas St, Lansing, KS 66043, United States","-94.89267099999999","39.2514045","Leavenworth County","ChIJiywGndJiwIcR2TyTJJPGIO8","KS"
"Lansing","Kansas - Kansas Department of Corrections","KS","ICS","2021-01-07T20:36:32.237Z","Lansing","Lansing, KS, USA","-94.90024129999999","39.2486126","Leavenworth County","ChIJQWAhQcViwIcRZeCHGgdHIj0","KS"
"Central Office","Kansas - Kansas Department of Corrections","KS","ICS","2021-01-07T20:36:35.757Z","Kansas City Kansas Public Schools Central Office","2010 N 59 St, Kansas City, KS 66104, United States","-94.7169365","39.1299613","Wyandotte County","ChIJFajRpXLxwIcRwIr_u-gviZY","KS"
"Ellsworth Correctional Facility East Unit","Kansas - Kansas Department of Corrections","KS","ICS","2021-01-07T20:36:39.358Z","Ellsworth Correctional Facility East Unit","Ellsworth, KS 67439, United States","-98.2154235","38.7241363","Ellsworth County","ChIJQ0yKWpkUo4cR5IQk4KykhlQ","KS"
"Topeka","Kansas - Kansas Department of Corrections","KS","ICS","2021-01-07T20:36:43.220Z","Topeka","Topeka, KS, USA","-95.67515759999999","39.0473451","Shawnee County","ChIJKXrs2uQCv4cR8KfjatDnK74","KS"
"East Hutchinson","Kansas - Kansas Department of Corrections","KS","ICS","2021-01-07T20:36:47.133Z","Hutchinson","Hutchinson, KS, USA","-97.92977429999999","38.0608445","Reno County","ChIJJ8FxVLLJpIcRO-3WEKCGqms","KS"
"Norton","Kansas - Kansas Department of Corrections","KS","ICS","2021-01-07T20:36:51.464Z","Norton","Norton, KS 67654, USA","-99.89151129999999","39.8338946","Norton County","ChIJqzZS9oR1n4cRLfoy5Ev0MlI","KS"
"Stockton","Kansas - Kansas Department of Corrections","KS","ICS","2021-01-07T20:36:55.175Z","Stockton","Stockton, KS 67669, USA","-99.2650967","39.4380656","Rooks County","ChIJZTLUP033oYcR0_O7WqWABE8","KS"
"Kansas Juvenile Correctional Centers","Kansas - Kansas Department of Corrections Juvenile Services","KS","ICS","2021-01-07T20:37:06.796Z","Juvenile Correctional Complex","1430 NW 25th St, Topeka, KS 66618, United States","-95.6816491","39.0956739","Shawnee County","ChIJ_186ENQDv4cRfp89BM-f_bA","KS"
"Larned State Hospital - PSP","Kansas - Larned State Hospital","KS","ICS","2021-01-07T20:37:14.164Z","LARNED","1301 KS-264, Larned, KS 67550, United States","-99.15092279999999","38.1714485","Pawnee County","ChIJOZAy0VYCpIcRpKqLAHo513E","KS"
"Larned State Hospital - SPTP","Kansas - Larned State Hospital","KS","ICS","2021-01-07T20:37:17.358Z","LARNED","1301 KS-264, Larned, KS 67550, United States","-99.15092279999999","38.1714485","Pawnee County","ChIJOZAy0VYCpIcRpKqLAHo513E","KS"
"Larned State Hospital - SSP","Kansas - Larned State Hospital","KS","ICS","2021-01-07T20:37:20.952Z","Larned Correctional Mental Health Facility","1318 KS-264, Larned, KS 67550, United States","-99.1509889","38.1767094","Pawnee County","ChIJo0XsBVECpIcRq6FPjaF_mVM","KS"
"East Baton Rouge Parish Prison","Louisiana - East Baton Rouge Parish Sheriffs Office","LA","ICS","2021-01-07T20:37:33.464Z","East Baton Rouge Parish Prison","2867 Brig Gen Isaac Smith Ave, Baton Rouge, LA 70807, United States","-91.1645293","30.5342416","East Baton Rouge Parish","ChIJTRf9YXqfJoYRYEROSGgVdZI","LA"
"East Baton Rouge Parish Prison Work Release Center","Louisiana - East Baton Rouge Parish Sheriffs Office","LA","ICS","2021-01-07T20:37:35.765Z","East Baton Rouge Parish Prison","2867 Brig Gen Isaac Smith Ave, Baton Rouge, LA 70807, United States","-91.1645293","30.5342416","East Baton Rouge Parish","ChIJTRf9YXqfJoYRYEROSGgVdZI","LA"
"Out of Parish","Louisiana - East Baton Rouge Parish Sheriffs Office","LA","ICS","2021-01-07T20:37:39.821Z","Cut Off","Cut Off, LA 70345, USA","-90.3381361","29.5427168","Lafourche Parish","ChIJ5dQdTHzzIIYRkGNcAzewDgc","LA"
"LaFourche Parish Detention Center","Louisiana - LaFourche Parish Sheriffs Office","LA","ICS","2021-01-07T20:37:51.065Z","Lafourche Parish Sheriff's Office","200 Canal Blvd, Thibodaux, LA 70301, United States","-90.81842069999999","29.7979539","Lafourche Parish","ChIJF6uU2O89IYYRHts5RlqbsT0","LA"
"Lafourche Parish Transitional Work Program","Louisiana - LaFourche Parish Sheriffs Office","LA","ICS","2021-01-07T20:37:53.755Z","Lafourche Parish Work Release","Raceland, LA 70394, United States","-90.60466919999999","29.7145769","Lafourche Parish","ChIJCRDG5R4eIYYRxtcGLVyGzYY","LA"
"Lafourche Parish Correctional Complex","Louisiana - LaFourche Parish Sheriffs Office","LA","ICS","2021-01-07T20:37:58.190Z","Detention Center","2594 Veterans Blvd, Thibodaux, LA 70301, United States","-90.84802239999999","29.7677745","Lafourche Parish","ChIJxRieuYcVIYYRNY4isvGm71Y","LA"
"LaFourche Parish Galliano Sub-Station","Louisiana - LaFourche Parish Sheriffs Office","LA","ICS","2021-01-07T20:38:02.348Z","Lafourche Parish Sheriff's Office","102 W 91st St, Cut Off, LA 70345, United States","-90.3296556","29.5015509","Lafourche Parish","ChIJpas8A4X0IIYRbA9zQa6hjnY","LA"
"LaFourche Parish Detention Center","Louisiana - Lafourche Parish Transitional Work Program","LA","ICS","2021-01-07T20:38:12.980Z","Lafourche Parish Sheriff's Office","200 Canal Blvd, Thibodaux, LA 70301, United States","-90.81842069999999","29.7979539","Lafourche Parish","ChIJF6uU2O89IYYRHts5RlqbsT0","LA"
"Lafourche Parish Transitional Work Program","Louisiana - Lafourche Parish Transitional Work Program","LA","ICS","2021-01-07T20:38:15.622Z","Lafourche Parish Work Release","Raceland, LA 70394, United States","-90.60466919999999","29.7145769","Lafourche Parish","ChIJCRDG5R4eIYYRxtcGLVyGzYY","LA"
"Lafourche Parish Correctional Complex","Louisiana - Lafourche Parish Transitional Work Program","LA","ICS","2021-01-07T20:38:21.568Z","Detention Center","2594 Veterans Blvd, Thibodaux, LA 70301, United States","-90.84802239999999","29.7677745","Lafourche Parish","ChIJxRieuYcVIYYRNY4isvGm71Y","LA"
"LaFourche Parish Galliano Sub-Station","Louisiana - Lafourche Parish Transitional Work Program","LA","ICS","2021-01-07T20:38:25.461Z","Lafourche Parish Sheriff's Office","102 W 91st St, Cut Off, LA 70345, United States","-90.3296556","29.5015509","Lafourche Parish","ChIJpas8A4X0IIYRbA9zQa6hjnY","LA"
"ICE Detainees","Maryland - Anne Arundel Detention Facilities","MD","ICS","2021-01-07T20:38:38.861Z","Worcester County Detention Center","5022 Joyner Rd, Snow Hill, MD 21863, United States","-75.3759013","38.1698775","Worcester County","ChIJO_m9dmgWuYkR4hOjPY8m_SE","MD"
"Annapolis","Maryland - Anne Arundel Detention Facilities","MD","ICS","2021-01-07T20:38:41.465Z","Annapolis","Annapolis, MD, USA","-76.4921829","38.9784453","Anne Arundel County","ChIJ1S9ncGX2t4kRSyeo0_1U-EM","MD"
"Glen Burnie","Maryland - Anne Arundel Detention Facilities","MD","ICS","2021-01-07T20:38:45.135Z","Glen Burnie","Glen Burnie, MD, USA","-76.6246886","39.1626084","Anne Arundel County","ChIJI9xddWD7t4kRXZbDRgMkxps","MD"
"ICE Detainees","Maryland - ICE Detainees","MD","ICS","2021-01-07T20:38:55.159Z","Worcester County Detention Center","5022 Joyner Rd, Snow Hill, MD 21863, United States","-75.3759013","38.1698775","Worcester County","ChIJO_m9dmgWuYkR4hOjPY8m_SE","MD"
"Annapolis","Maryland - ICE Detainees","MD","ICS","2021-01-07T20:38:58.447Z","Annapolis","Annapolis, MD, USA","-76.4921829","38.9784453","Anne Arundel County","ChIJ1S9ncGX2t4kRSyeo0_1U-EM","MD"
"Glen Burnie","Maryland - ICE Detainees","MD","ICS","2021-01-07T20:39:02.961Z","Glen Burnie","Glen Burnie, MD, USA","-76.6246886","39.1626084","Anne Arundel County","ChIJI9xddWD7t4kRXZbDRgMkxps","MD"
"Baltimore County Corrections","Maryland - Baltimore County Corrections","MD","ICS","2021-01-07T20:39:15.373Z","Baltimore County Department of Corrections","720 Bosley Ave, Towson, MD 21204, United States","-76.6080906","39.4064302","Baltimore County","ChIJCaB5QbIPyIkRwt_9xKiehi4","MD"
"Precinct 2 Woodlawn","Maryland - Baltimore County Corrections","MD","ICS","2021-01-07T20:39:16.463Z","Baltimore County Police Department Precinct 2","6424 Windsor Mill Rd, Gwynn Oak, MD 21207, United States","-76.7277905","39.3229781","Baltimore County","ChIJm9bau90byIkRzGG_SVdBA9A","MD"
"Precinct 3 Franklin","Maryland - Baltimore County Corrections","MD","ICS","2021-01-07T20:39:20.366Z","Baltimore County Police Department Precinct 3","606 Nicodemus Rd, Reisterstown, MD 21136, United States","-76.827362","39.4440398","Baltimore County","ChIJD7sZvYc9yIkRZuMJN2t3Ts8","MD"
"Precinct 11 Essex","Maryland - Baltimore County Corrections","MD","ICS","2021-01-07T20:39:24.683Z","Baltimore County Police Department Precinct 11","216 N Marlyn Ave, Essex, MD 21221, United States","-76.467034","39.3164033","Baltimore County","ChIJlWPlXoMHyIkRUoK8ArFuDok","MD"
"Precinct 1 Wilkens","Maryland - Baltimore County Corrections","MD","ICS","2021-01-07T20:39:29.260Z","Baltimore County Police Department","901 Walker Ave, Catonsville, MD 21228, United States","-76.71630549999999","39.2598517","Baltimore County","ChIJaf1OVzMcyIkR5jHX6AKBTDM","MD"
"Precinct 4 Pikesville","Maryland - Baltimore County Corrections","MD","ICS","2021-01-07T20:39:32.960Z","Baltimore County Police, Precinct 4 Pikesville","215 Milford Mill Rd, Pikesville, MD 21208, United States","-76.7194588","39.3664815","Baltimore County","ChIJo6fh1BAayIkRICdEjB3cGiU","MD"
"Precinct 8 Parkville","Maryland - Baltimore County Corrections","MD","ICS","2021-01-07T20:39:37.357Z","Baltimore County Police Department Precinct 8","8532 Old Harford Rd, Parkville, MD 21234, United States","-76.5442214","39.3899251","Baltimore County","ChIJXWVwP8wIyIkReCpltbSZwzw","MD"
"Precinct 6 Towson","Maryland - Baltimore County Corrections","MD","ICS","2021-01-07T20:39:40.259Z","Towson Precinct Baltimore County Police","115 W Susquehanna Ave, Towson, MD 21204, United States","-76.6071023","39.3985782","Baltimore County","ChIJs8mir7oPyIkRhk94La8R1ig","MD"
"Precinct 7 Cockeysville","Maryland - Baltimore County Corrections","MD","ICS","2021-01-07T20:39:44.263Z","Baltimore County Police Department Precinct 7","111 Wight Ave, Cockeysville, MD 21030, United States","-76.6545522","39.4877132","Baltimore County","ChIJrX7mEmUSyIkRA_bSwk3L__o","MD"
"Precinct 9 White Marsh","Maryland - Baltimore County Corrections","MD","ICS","2021-01-07T20:39:48.765Z","Baltimore County Police Department-Precinct 9","8220 Perry Hall Blvd, Nottingham, MD 21236, United States","-76.4729466","39.3757998","Baltimore County","ChIJ_RfM1z0IyIkR0belgPBhWPo","MD"
"Precinct 12 Dundalk","Maryland - Baltimore County Corrections","MD","ICS","2021-01-07T20:39:52.724Z","Dundalk Precinct 12","428 Westham Way, Baltimore, MD 21224, United States","-76.5244562","39.2907906","Baltimore County","ChIJ8UoJP9YAyIkRy0fvNQoZUv4","MD"
"Charles County Detention Center","Maryland - Charles County Detention Center","MD","ICS","2021-01-07T20:40:01.375Z","Charles County Detention","6905 Crain Hwy, La Plata, MD 20646, United States","-76.9850747","38.52363649999999","Charles County","ChIJmz8jRcEIt4kRw15jaqnkdTw","MD"
"Harford Detention Center","Maryland - Harford County Detention","MD","ICS","2021-01-07T20:40:10.062Z","Harford County Detention Center","1030 Rock Spring Rd, Bel Air, MD 21014, United States","-76.36416439999999","39.5547176","Harford County","ChIJIU4VVyfcx4kRKvq7nC87_Nw","MD"
"Howard County Detention Center","Maryland - Howard County Department of Corrections","MD","ICS","2021-01-07T20:40:18.481Z","Howard County Department of Corrections","7301 Waterloo Rd, Jessup, MD 20794, United States","-76.78183330000002","39.1694232","Howard County","ChIJQcIBJ-Lgt4kRu-gWEq22wtw","MD"
"Montgomery County Correctional Facility","Maryland - Montgomery County","MD","ICS","2021-01-07T20:40:26.585Z","Montgomery County Correctional","22880 Whelan Ln, Boyds, MD 20841, United States","-77.29321709999999","39.2379458","Montgomery County","ChIJ3wvfqGIptokRkaGeXKpLuLo","MD"
"Montgomery County Detention Center","Maryland - Montgomery County","MD","ICS","2021-01-07T20:40:29.256Z","Montgomery County Detention Center","1307 Seven Locks Rd, Rockville, MD 20854, United States","-77.16135369999999","39.0690511","Montgomery County","ChIJH6CYohzNt4kRxlB6DMqKb5M","MD"
"St. Marys County Detention Center","Maryland - St. Marys County Detention Center","MD","ICS","2021-01-07T20:40:38.475Z","St Marys County Corrections","41880 Baldridge St, Leonardtown, MD 20650, United States","-76.6283701","38.3028111","St. Mary's County","ChIJjTq55wdmt4kR8LajVDuaTsI","MD"
"Washington County","Maryland - Washington County","MD","ICS","2021-01-07T20:40:46.980Z","Washington County","Washington County, MD, USA","-77.719993","39.641762","Washington County","ChIJ5W-Kkev3yYkRRi6fquUOrYE","MD"
"Hampden County Massachusetts Correctional Center Intake","Massachusetts - Hampden County Sheriffs Department","MA","ICS","2021-01-07T20:40:57.969Z","Hampden County Jail","627 Randall Rd, Ludlow, MA 01056, United States","-72.51286259999999","42.2035738","Hampden County","ChIJI6-Ea1fD5okRHL3v6qrv-2g","MA"
"Western Massachusetts Women's Correctional Center Intake","Massachusetts - Hampden County Sheriffs Department","MA","ICS","2021-01-07T20:41:00.776Z","Western Mass Regional Women's Correctional Center","701 Center St, Chicopee, MA 01013, United States","-72.6113967","42.1300315","Hampden County","ChIJb-AuQUrn5okRr4ydpqiyr1g","MA"
"Western Mass Regional Womens Correctional Center Orientation","Massachusetts - Hampden County Sheriffs Department","MA","ICS","2021-01-07T20:41:04.807Z","Western Mass Regional Women's Correctional Center","701 Center St, Chicopee, MA 01013, United States","-72.6113967","42.1300315","Hampden County","ChIJb-AuQUrn5okRr4ydpqiyr1g","MA"
"Hampden Jail Visitation","Massachusetts - Hampden County Sheriffs Department","MA","ICS","2021-01-07T20:41:08.475Z","Hampden County Jail","627 Randall Rd, Ludlow, MA 01056, United States","-72.51286259999999","42.2035738","Hampden County","ChIJI6-Ea1fD5okRHL3v6qrv-2g","MA"
"Hampden County Massachusetts Correctional Center Orientation","Massachusetts - Hampden County Sheriffs Department","MA","ICS","2021-01-07T20:41:15.635Z","Hampden County Jail","627 Randall Rd, Ludlow, MA 01056, United States","-72.51286259999999","42.2035738","Hampden County","ChIJI6-Ea1fD5okRHL3v6qrv-2g","MA"
"Hampden County Jail and House of Correction (HCJHOC)","Massachusetts - Hampden County Sheriffs Department","MA","ICS","2021-01-07T20:41:20.365Z","Hampden County Jail and House of Correction","627 Randall Rd, Ludlow, MA 01056, United States","-72.51050579999999","42.2046321","Hampden County","ChIJuxGba1fD5okRh-ZqFm_NWQ0","MA"
"Western Mass Regional Womens Correctional Center (WCC)","Massachusetts - Hampden County Sheriffs Department","MA","ICS","2021-01-07T20:41:28.162Z","Western Mass Regional Women's Correctional Center","701 Center St, Chicopee, MA 01013, United States","-72.6113967","42.1300315","Hampden County","ChIJb-AuQUrn5okRr4ydpqiyr1g","MA"
"Hampden Pre Release Center (PRC)","Massachusetts - Hampden County Sheriffs Department","MA","ICS","2021-01-07T20:41:32.268Z","Hampden County Pre-Release Center","325 Alabama St, Ludlow, MA 01056, United States","-72.50962609999999","42.201608","Hampden County","ChIJ3W_VGVnD5okRM4fbadBIBio","MA"
"Hampshire Sheriffs Department","Massachusetts - Hampshire County","MA","ICS","2021-01-07T20:41:46.661Z","Hampshire Sheriff's Office","205 Rocky Hill Rd, Northampton, MA 01060, United States","-72.6594303","42.3079917","Hampshire County","ChIJvXsGf9XZ5okR_VqWa_dSNy4","MA"
"Calhoun County Correctional Center","Michigan - Calhoun County Sheriffs Office","MI","ICS","2021-01-07T20:41:56.970Z","Calhoun County Jail","185 E Michigan Ave, Battle Creek, MI 49014, United States","-85.1757947","42.3166565","Calhoun County","ChIJcWiVTJLxF4gRxHCjzHuqj08","MI"
"Cass County Jail","Michigan - Cass County Sheriffs Office","MI","ICS","2021-01-07T20:42:05.262Z","Cass County Jail","321 M-62, Cassopolis, MI 49031, United States","-86.0187741","41.9193868","Cass County","ChIJDXd3PK4mF4gRwLB6csccNpI","MI"
"Huron County Jail","Michigan - Huron County Sheriffs Office","MI","ICS","2021-01-07T20:42:13.064Z","Huron County Jail","120 S Heisterman St, Bad Axe, MI 48413, United States","-82.9985763","43.8015181","Huron County","ChIJ3e1uXKmOJogRL5WjK5xbHrM","MI"
"Ionia County Correctional Center","Michigan - Ionia County","MI","ICS","2021-01-07T20:42:21.574Z","Ionia Correctional Facility","1576 Bluewater Hwy, Ionia, MI 48846, United States","-85.10104170000001","42.9837145","Ionia County","ChIJhW8NH1B7GIgRK5S-mKnLyaU","MI"
"Kalkaska County Jail","Michigan - Kalkaska County Sheriffs Office","MI","ICS","2021-01-07T20:42:28.882Z","Kalkaska County Sheriff","605 N Birch St, Kalkaska, MI 49646, United States","-85.1849244","44.7406821","Kalkaska County","ChIJbV9x5E3vH4gRvL3Dt7eqQcs","MI"
"Kent County Correctional Facility","Michigan - Kent County","MI","ICS","2021-01-07T20:42:37.476Z","Kent County Jail","703 Ball Ave NE, Grand Rapids, MI 49503, United States","-85.6328755","42.9749548","Kent County","ChIJhdDVW-KsGYgRyo47RKLI0SY","MI"
"Lake County Jail","Michigan - Lake County Sheriffs Department","MI","ICS","2021-01-07T20:42:45.967Z","Lake County Jail","1153 Michigan Ave, Baldwin, MI 49304, United States","-85.8517258","43.90054809999999","Lake County","ChIJ0WBirK3IHogRCTqoUBWakME","MI"
"Livingston County Jail","Michigan - Livingston County","MI","ICS","2021-01-07T20:42:53.862Z","Livingston County Jail","150 S Highlander Way, Howell, MI 48843, United States","-83.9555367","42.612903","Livingston County","ChIJ3x0qQ8c4I4gRNSrSYKH93dQ","MI"
"Macomb County Jail","Michigan - Macomb County","MI","ICS","2021-01-07T20:43:01.258Z","Macomb County Jail","43565 Elizabeth Rd, Mt Clemens, MI 48043, United States","-82.8887919","42.6169129","Macomb County","ChIJs-DID2kgJYgRa3uAE5VQTAc","MI"
"Mason County Jail","Michigan - Mason County Sheriffs Office","MI","ICS","2021-01-07T20:43:08.573Z","Mason County Jail","302 N Delia St, Ludington, MI 49431, United States","-86.4436482","43.9578619","Mason County","ChIJiZ5JKckQHIgRL7mvCHAJKsE","MI"
"Mecosta County Jail","Michigan - Mecosta County","MI","ICS","2021-01-07T20:43:15.764Z","Mecosta County Jail","225 S Stewart Ave, Big Rapids, MI 49307, United States","-85.4783047","43.6960566","Mecosta County","ChIJyRNJ_inTGIgRUbTHi2XIsJw","MI"
"Monroe Adult Detention","Michigan - Monroe County","MI","ICS","2021-01-07T20:43:23.665Z","Monroe County Sheriff's Office and Jail","100 E 2nd St #1, Monroe, MI 48161, United States","-83.39741579999999","41.9139789","Monroe County","ChIJ64ekzL1vO4gR9hzuAUV9Js8","MI"
"Inmate Dormitory Facility","Michigan - Monroe County","MI","ICS","2021-01-07T20:43:26.759Z","Monroe County Inmate Dormitory Facility","7000 E Dunbar Rd, Monroe, MI 48161, United States","-83.3933407","41.8955758","Monroe County","ChIJA9wVgDtvO4gRfCD-Fu3_vhA","MI"
"Montcalm County Jail","Michigan - Montcalm County Sheriffs Office","MI","ICS","2021-01-07T20:43:36.661Z","Montcalm County Jail","649 N State St, Stanton, MI 48888, United States","-85.0863658","43.3018021","Montcalm County","ChIJ93hoxCGaGIgRJvpn8eV0AOk","MI"
"Oakland County Jail","Michigan - Oakland County Sheriffs Office","MI","ICS","2021-01-07T20:43:44.966Z","Oakland County Jail","1201 Telegraph Rd, Pontiac, MI 48341, United States","-83.3230817","42.6548806","Oakland County","ChIJx6mRLgm-JIgRPPf60f3HeSM","MI"
"Oakland County Jail - East Annex","Michigan - Oakland County Sheriffs Office","MI","ICS","2021-01-07T20:43:47.646Z","Oakland County Jail","1201 Telegraph Rd, Pontiac, MI 48341, United States","-83.3230817","42.6548806","Oakland County","ChIJx6mRLgm-JIgRPPf60f3HeSM","MI"
"Oakland County Childrens Village","Michigan - Oakland County Sheriffs Office","MI","ICS","2021-01-07T20:43:52.062Z","Oakland County's Children's Village","1200 Telegraph Rd, Pontiac, MI 48341, United States","-83.3270761","42.6556399","Oakland County","ChIJq3MhVf29JIgRLechTNkvJVI","MI"
"Osceola County Jail","Michigan - Osceola County Sheriffs Office","MI","ICS","2021-01-07T20:44:00.160Z","Osceola County Sheriff's Office / Jail","325 W Upton Ave, Reed City, MI 49677, United States","-85.5149321","43.8755691","Osceola County","ChIJjb3T4N0lH4gR5X_ss_BN988","MI"
"Tuscola County Jail","Michigan - Tuscola County Jail","MI","ICS","2021-01-07T20:44:07.165Z","Tuscola County Sheriff","420 Court St #1, Caro, MI 48723, United States","-83.3925943","43.4903455","Tuscola County","ChIJgegshBsbJIgRl0Z5QWFF1pM","MI"
"Anoka County Main Jail","Minnesota - Anoka County Detention Facility","MN","ICS","2021-01-07T20:44:16.383Z","Anoka County Jail","325 Jackson St, Anoka, MN 55303, United States","-93.3858908","45.1988999","Anoka County","ChIJJe3sa5M-s1IRtVn5nVTjk3Y","MN"
"Olmsted County Adult Detention Center","Minnesota - Olmsted County Sheriffs Office","MN","ICS","2021-01-07T20:44:25.266Z","Olmsted County Adult Detention Center","101 4th St SE, Rochester, MN 55904, United States","-92.46051969999999","44.0201304","Olmsted County","ChIJa6NSf9jh-YcRSGH-Fb8fu-E","MN"
"Olmsted County Work Release Facility","Minnesota - Olmsted County Sheriffs Office","MN","ICS","2021-01-07T20:44:27.554Z","Olmsted County Adult Detention Center","101 4th St SE, Rochester, MN 55904, United States","-92.46051969999999","44.0201304","Olmsted County","ChIJa6NSf9jh-YcRSGH-Fb8fu-E","MN"
"Olmsted County Juvenile Detention Center","Minnesota - Olmsted County Sheriffs Office","MN","ICS","2021-01-07T20:44:30.943Z","Olmsted County Adult Detention Center","101 4th St SE, Rochester, MN 55904, United States","-92.46051969999999","44.0201304","Olmsted County","ChIJa6NSf9jh-YcRSGH-Fb8fu-E","MN"
"Ramsey County Workhouse","Minnesota - Ramsey Workhouse","MN","ICS","2021-01-07T20:44:40.466Z","Ramsey County Correctional Facility","297 Century Ave S, St Paul, MN 55119, United States","-92.98638439999999","44.9318111","Ramsey County","ChIJa1rM0VbW94cRwho1_mHbgkA","MN"
"Clay County Detention Center","Mississippi - Clay County Sheriffs Office","MS","ICS","2021-01-07T20:44:50.360Z","Clay County Sheriff","218 W Broad St, West Point, MS 39773, United States","-88.6531066","33.6049995","Clay County","ChIJUx3utODPhogRsABbaTGYYG0","MS"
"Leavenworth Detention Center","Mississippi - Tallahatchie County Correctional Facility","MS","ICS","2021-01-07T20:44:58.064Z","Corrections Corporation of America","100 Hwy Terrace, Leavenworth, KS 66048, United States","-94.8920222","39.2724963","Leavenworth County","ChIJbSkMMjNjwIcRb-nLNXdUCMo","MS"
"Tallahatchie WYDOC","Mississippi - Tallahatchie County Correctional Facility","MS","ICS","2021-01-07T20:45:01.188Z","Tallahatchie County Correction","415 US 49, Tutwiler, MS 38963, United States","-90.44626319999999","34.0269812","Tallahatchie County","ChIJj0J2RqHvKoYRos8aPbwvSxg","MS"
"Silverdale Detention Facilities","Mississippi - Tallahatchie County Correctional Facility","MS","ICS","2021-01-07T20:45:05.373Z","George County Regional Correctional Facility","154 Industrial Park Rd, Lucedale, MS 39452, United States","-88.5873764","30.930456","George County","ChIJOUjlJ1d2m4gRXVgT8ZdcO4c","MS"
"Tallahatchie  MSDOC","Mississippi - Tallahatchie County Correctional Facility","MS","ICS","2021-01-07T20:45:09.683Z","Tallahatchie County","Tallahatchie County, MS, USA","-90.1869644","33.9302578","Tallahatchie County","ChIJL6fDplSMKoYRbIvoB0SKF1o","MS"
"Hardeman County Correctional Center","Mississippi - Tallahatchie County Correctional Facility","MS","ICS","2021-01-07T20:45:13.298Z","Marshall County Correctional Facility","833 West St, Holly Springs, MS 38635, United States","-89.43780699999999","34.7961607","Marshall County","ChIJjyv9S6HLf4gRQd1lZpo1OWk","MS"
"La Palma Correctional Center","Mississippi - Tallahatchie County Correctional Facility","MS","ICS","2021-01-07T20:45:17.349Z","Adams County Correctional Center","20 Hobo Fork Rd, Natchez, MS 39120, United States","-91.2216138","31.5574742","Adams County","ChIJ86kNQiL-JYYRLXpJQEKsMrc","MS"
"West Tennessee Detention Facility","Mississippi - Tallahatchie County Correctional Facility","MS","ICS","2021-01-07T20:45:20.573Z","Desoto County Adult Detention Facility","3425 Industrial Dr W, Hernando, MS 38632, United States","-89.9836184","34.8096729","DeSoto County","ChIJdQ3Ot371f4gRoFL0dFypZ_c","MS"
"Whiteville Correctional Facility","Mississippi - Tallahatchie County Correctional Facility","MS","ICS","2021-01-07T20:45:24.557Z","South Mississippi Correctional Institution","22689 MS-63, Leakesville, MS 39451, United States","-88.60599169999999","31.1767874","Greene County","ChIJ3yUaL8Vom4gRrSVUK0SpCGw","MS"
"Tallahatchie County Correctional Facility","Mississippi - Tallahatchie County Correctional Facility","MS","ICS","2021-01-07T20:45:28.272Z","Tallahatchie County Correction","415 US 49, Tutwiler, MS 38963, United States","-90.44626319999999","34.0269812","Tallahatchie County","ChIJj0J2RqHvKoYRos8aPbwvSxg","MS"
"Tallahatchie ICE","Mississippi - Tallahatchie County Correctional Facility","MS","ICS","2021-01-07T20:45:32.566Z","Tallahatchie County Correction","415 US 49, Tutwiler, MS 38963, United States","-90.44626319999999","34.0269812","Tallahatchie County","ChIJj0J2RqHvKoYRos8aPbwvSxg","MS"
"Tallahatchie VTDOC","Mississippi - Tallahatchie County Correctional Facility","MS","ICS","2021-01-07T20:45:36.917Z","Tallahatchie County Correction","415 US 49, Tutwiler, MS 38963, United States","-90.44626319999999","34.0269812","Tallahatchie County","ChIJj0J2RqHvKoYRos8aPbwvSxg","MS"
"Tallahatchie PRDOC","Mississippi - Tallahatchie County Correctional Facility","MS","ICS","2021-01-07T20:45:40.252Z","Tallahatchie County","Tallahatchie County, MS, USA","-90.1869644","33.9302578","Tallahatchie County","ChIJL6fDplSMKoYRbIvoB0SKF1o","MS"
"Nevada Southern Detention Center","Mississippi - Tallahatchie County Correctional Facility","MS","ICS","2021-01-07T20:45:44.694Z","Nevada Southern Detention Center","2190 E Mesquite Ave, Pahrump, NV 89060, United States","-115.9769898","36.2527907","Nye County","ChIJISE2b-Y2xoARe1__mRxeaEo","MS"
"Tallahatchie SCDOC","Mississippi - Tallahatchie County Correctional Facility","MS","ICS","2021-01-07T20:45:48.466Z","Tallahatchie County Correction","415 US 49, Tutwiler, MS 38963, United States","-90.44626319999999","34.0269812","Tallahatchie County","ChIJj0J2RqHvKoYRos8aPbwvSxg","MS"
"Leavenworth Detention Center","Mississippi - Tallahatchie WYDOC","MS","ICS","2021-01-07T20:45:57.857Z","Corrections Corporation of America","100 Hwy Terrace, Leavenworth, KS 66048, United States","-94.8920222","39.2724963","Leavenworth County","ChIJbSkMMjNjwIcRb-nLNXdUCMo","MS"
"Tallahatchie WYDOC","Mississippi - Tallahatchie WYDOC","MS","ICS","2021-01-07T20:46:00.104Z","Tallahatchie County Correction","415 US 49, Tutwiler, MS 38963, United States","-90.44626319999999","34.0269812","Tallahatchie County","ChIJj0J2RqHvKoYRos8aPbwvSxg","MS"
"Silverdale Detention Facilities","Mississippi - Tallahatchie WYDOC","MS","ICS","2021-01-07T20:46:04.887Z","George County Regional Correctional Facility","154 Industrial Park Rd, Lucedale, MS 39452, United States","-88.5873764","30.930456","George County","ChIJOUjlJ1d2m4gRXVgT8ZdcO4c","MS"
"Tallahatchie  MSDOC","Mississippi - Tallahatchie WYDOC","MS","ICS","2021-01-07T20:46:08.802Z","Tallahatchie County","Tallahatchie County, MS, USA","-90.1869644","33.9302578","Tallahatchie County","ChIJL6fDplSMKoYRbIvoB0SKF1o","MS"
"Hardeman County Correctional Center","Mississippi - Tallahatchie WYDOC","MS","ICS","2021-01-07T20:46:12.986Z","Marshall County Correctional Facility","833 West St, Holly Springs, MS 38635, United States","-89.43780699999999","34.7961607","Marshall County","ChIJjyv9S6HLf4gRQd1lZpo1OWk","MS"
"La Palma Correctional Center","Mississippi - Tallahatchie WYDOC","MS","ICS","2021-01-07T20:46:16.057Z","Adams County Correctional Center","20 Hobo Fork Rd, Natchez, MS 39120, United States","-91.2216138","31.5574742","Adams County","ChIJ86kNQiL-JYYRLXpJQEKsMrc","MS"
"West Tennessee Detention Facility","Mississippi - Tallahatchie WYDOC","MS","ICS","2021-01-07T20:46:19.540Z","Desoto County Adult Detention Facility","3425 Industrial Dr W, Hernando, MS 38632, United States","-89.9836184","34.8096729","DeSoto County","ChIJdQ3Ot371f4gRoFL0dFypZ_c","MS"
"Whiteville Correctional Facility","Mississippi - Tallahatchie WYDOC","MS","ICS","2021-01-07T20:46:23.248Z","South Mississippi Correctional Institution","22689 MS-63, Leakesville, MS 39451, United States","-88.60599169999999","31.1767874","Greene County","ChIJ3yUaL8Vom4gRrSVUK0SpCGw","MS"
"Tallahatchie County Correctional Facility","Mississippi - Tallahatchie WYDOC","MS","ICS","2021-01-07T20:46:26.970Z","Tallahatchie County Correction","415 US 49, Tutwiler, MS 38963, United States","-90.44626319999999","34.0269812","Tallahatchie County","ChIJj0J2RqHvKoYRos8aPbwvSxg","MS"
"Tallahatchie ICE","Mississippi - Tallahatchie WYDOC","MS","ICS","2021-01-07T20:46:30.852Z","Tallahatchie County Correction","415 US 49, Tutwiler, MS 38963, United States","-90.44626319999999","34.0269812","Tallahatchie County","ChIJj0J2RqHvKoYRos8aPbwvSxg","MS"
"Tallahatchie VTDOC","Mississippi - Tallahatchie WYDOC","MS","ICS","2021-01-07T20:46:34.627Z","Tallahatchie County Correction","415 US 49, Tutwiler, MS 38963, United States","-90.44626319999999","34.0269812","Tallahatchie County","ChIJj0J2RqHvKoYRos8aPbwvSxg","MS"
"Tallahatchie PRDOC","Mississippi - Tallahatchie WYDOC","MS","ICS","2021-01-07T20:46:38.660Z","Tallahatchie County","Tallahatchie County, MS, USA","-90.1869644","33.9302578","Tallahatchie County","ChIJL6fDplSMKoYRbIvoB0SKF1o","MS"
"Nevada Southern Detention Center","Mississippi - Tallahatchie WYDOC","MS","ICS","2021-01-07T20:46:43.171Z","Nevada Southern Detention Center","2190 E Mesquite Ave, Pahrump, NV 89060, United States","-115.9769898","36.2527907","Nye County","ChIJISE2b-Y2xoARe1__mRxeaEo","MS"
"Tallahatchie SCDOC","Mississippi - Tallahatchie WYDOC","MS","ICS","2021-01-07T20:46:47.046Z","Tallahatchie County Correction","415 US 49, Tutwiler, MS 38963, United States","-90.44626319999999","34.0269812","Tallahatchie County","ChIJj0J2RqHvKoYRos8aPbwvSxg","MS"
"Leavenworth Detention Center","Mississippi - Tallahatchie SCDOC","MS","ICS","2021-01-07T20:46:55.963Z","Corrections Corporation of America","100 Hwy Terrace, Leavenworth, KS 66048, United States","-94.8920222","39.2724963","Leavenworth County","ChIJbSkMMjNjwIcRb-nLNXdUCMo","MS"
"Tallahatchie WYDOC","Mississippi - Tallahatchie SCDOC","MS","ICS","2021-01-07T20:46:58.856Z","Tallahatchie County Correction","415 US 49, Tutwiler, MS 38963, United States","-90.44626319999999","34.0269812","Tallahatchie County","ChIJj0J2RqHvKoYRos8aPbwvSxg","MS"
"Silverdale Detention Facilities","Mississippi - Tallahatchie SCDOC","MS","ICS","2021-01-07T20:47:02.352Z","George County Regional Correctional Facility","154 Industrial Park Rd, Lucedale, MS 39452, United States","-88.5873764","30.930456","George County","ChIJOUjlJ1d2m4gRXVgT8ZdcO4c","MS"
"Tallahatchie  MSDOC","Mississippi - Tallahatchie SCDOC","MS","ICS","2021-01-07T20:47:06.864Z","Tallahatchie County","Tallahatchie County, MS, USA","-90.1869644","33.9302578","Tallahatchie County","ChIJL6fDplSMKoYRbIvoB0SKF1o","MS"
"Hardeman County Correctional Center","Mississippi - Tallahatchie SCDOC","MS","ICS","2021-01-07T20:47:10.636Z","Marshall County Correctional Facility","833 West St, Holly Springs, MS 38635, United States","-89.43780699999999","34.7961607","Marshall County","ChIJjyv9S6HLf4gRQd1lZpo1OWk","MS"
"La Palma Correctional Center","Mississippi - Tallahatchie SCDOC","MS","ICS","2021-01-07T20:47:13.869Z","Adams County Correctional Center","20 Hobo Fork Rd, Natchez, MS 39120, United States","-91.2216138","31.5574742","Adams County","ChIJ86kNQiL-JYYRLXpJQEKsMrc","MS"
"West Tennessee Detention Facility","Mississippi - Tallahatchie SCDOC","MS","ICS","2021-01-07T20:47:17.551Z","Desoto County Adult Detention Facility","3425 Industrial Dr W, Hernando, MS 38632, United States","-89.9836184","34.8096729","DeSoto County","ChIJdQ3Ot371f4gRoFL0dFypZ_c","MS"
"Whiteville Correctional Facility","Mississippi - Tallahatchie SCDOC","MS","ICS","2021-01-07T20:47:21.551Z","South Mississippi Correctional Institution","22689 MS-63, Leakesville, MS 39451, United States","-88.60599169999999","31.1767874","Greene County","ChIJ3yUaL8Vom4gRrSVUK0SpCGw","MS"
"Tallahatchie County Correctional Facility","Mississippi - Tallahatchie SCDOC","MS","ICS","2021-01-07T20:47:25.528Z","Tallahatchie County Correction","415 US 49, Tutwiler, MS 38963, United States","-90.44626319999999","34.0269812","Tallahatchie County","ChIJj0J2RqHvKoYRos8aPbwvSxg","MS"
"Tallahatchie ICE","Mississippi - Tallahatchie SCDOC","MS","ICS","2021-01-07T20:47:28.842Z","Tallahatchie County Correction","415 US 49, Tutwiler, MS 38963, United States","-90.44626319999999","34.0269812","Tallahatchie County","ChIJj0J2RqHvKoYRos8aPbwvSxg","MS"
"Tallahatchie VTDOC","Mississippi - Tallahatchie SCDOC","MS","ICS","2021-01-07T20:47:31.759Z","Tallahatchie County Correction","415 US 49, Tutwiler, MS 38963, United States","-90.44626319999999","34.0269812","Tallahatchie County","ChIJj0J2RqHvKoYRos8aPbwvSxg","MS"
